[
	{
		"name": "Provenza, Poblado",
		"external_id": "1964419633829697",
		"external_id_source": "facebook_places",
		"lat": 6.2061384954,
		"lng": -75.5652040243,
		"address": null,
		"minimum_age": 0.0,
		"url": "https://www.instagram.com/explore/locations/1964419633829697",
		"city": "Itagui",
		"admin1": "Antioquia",
		"admin2": null,
		"country_iso2": "CO"
	},
	{
		"name": "Donde. Fidel",
		"external_id": "3131475",
		"external_id_source": null,
		"lat": null,
		"lng": null,
		"address": null,
		"minimum_age": null,
		"url": "https://www.instagram.com/explore/locations/3131475",
		"city": "Cartagena",
		"admin1": null,
		"admin2": null,
		"country_iso2": null
	},
	{
		"name": "La Troja.",
		"external_id": "149899488530680",
		"external_id_source": "facebook_places",
		"lat": 10.9935191482,
		"lng": -74.8087620735,
		"address": "Calle 74 # 43 - 90, Barranquilla",
		"minimum_age": 0.0,
		"url": "https://www.instagram.com/explore/locations/149899488530680",
		"city": "Barranquilla",
		"admin1": "Atlantico",
		"admin2": null,
		"country_iso2": "CO"
	},
	{
		"name": "Zona T",
		"external_id": "128852577181112",
		"external_id_source": "facebook_places",
		"lat": 4.6673876429,
		"lng": -74.0540260077,
		"address": "Carrera 12 entre calles 82 y 83, Tenjo",
		"minimum_age": 0.0,
		"url": "https://www.instagram.com/explore/locations/128852577181112",
		"city": "Barrio San Luis",
		"admin1": "Bogota D.C.",
		"admin2": null,
		"country_iso2": "CO"
	},
	{
		"name": "La Troja.",
		"external_id": "215544652",
		"external_id_source": null,
		"lat": null,
		"lng": null,
		"address": null,
		"minimum_age": null,
		"url": "https://www.instagram.com/explore/locations/215544652",
		"city": "Barranquilla",
		"admin1": null,
		"admin2": null,
		"country_iso2": null
	},
	{
		"name": "Provenza ",
		"external_id": "254378853",
		"external_id_source": null,
		"lat": null,
		"lng": null,
		"address": null,
		"minimum_age": null,
		"url": "https://www.instagram.com/explore/locations/254378853",
		"city": "Medellin",
		"admin1": null,
		"admin2": null,
		"country_iso2": null
	},
	{
		"name": "Colombian Pub Zona T",
		"external_id": "196919917017613",
		"external_id_source": "facebook_places",
		"lat": 4.66732,
		"lng": -74.0548,
		"address": "Carrera 13 #82 33, Bogotá",
		"minimum_age": 0.0,
		"url": "https://www.instagram.com/explore/locations/196919917017613",
		"city": "Barrio San Luis",
		"admin1": "Bogota D.C.",
		"admin2": null,
		"country_iso2": "CO"
	},
	{
		"name": "ChefClub, Coffe - Bar",
		"external_id": "1287434394716084",
		"external_id_source": "facebook_places",
		"lat": 8.085620595,
		"lng": -73.225263857,
		"address": "Abrego, �Brego, Norte De Santander, Colombia",
		"minimum_age": 0.0,
		"url": "https://www.instagram.com/explore/locations/1287434394716084",
		"city": "Abrego",
		"admin1": "Norte de Santander",
		"admin2": null,
		"country_iso2": "CO"
	},
	{
		"name": "Maderos Abrego",
		"external_id": "1450855451635322",
		"external_id_source": "facebook_places",
		"lat": 8.085625151,
		"lng": -73.2216716361,
		"address": null,
		"minimum_age": 0.0,
		"url": "https://www.instagram.com/explore/locations/1450855451635322",
		"city": "Abrego",
		"admin1": "Norte de Santander",
		"admin2": null,
		"country_iso2": "CO"
	},
	{
		"name": "Limon Mandarino",
		"external_id": "110515124132724",
		"external_id_source": "facebook_places",
		"lat": 3.9760557236,
		"lng": -73.763549767,
		"address": "Malecón Acacías",
		"minimum_age": 0.0,
		"url": "https://www.instagram.com/explore/locations/110515124132724",
		"city": "Acacias",
		"admin1": "Meta",
		"admin2": null,
		"country_iso2": "CO"
	},
	{
		"name": "Beer Club Achi",
		"external_id": "495025937511557",
		"external_id_source": "facebook_places",
		"lat": 8.57026,
		"lng": -74.55689,
		"address": "Crra 8 13 - 11",
		"minimum_age": 0.0,
		"url": "https://www.instagram.com/explore/locations/495025937511557",
		"city": "Achi",
		"admin1": "Bolivar",
		"admin2": null,
		"country_iso2": "CO"
	},
	{
		"name": "Discobar D'kché",
		"external_id": "1746888112189574",
		"external_id_source": "facebook_places",
		"lat": 8.7043218613,
		"lng": -74.5165481567,
		"address": "Tres Cruces Achi Bolibar. Calle Siempre Viva",
		"minimum_age": 0.0,
		"url": "https://www.instagram.com/explore/locations/1746888112189574",
		"city": "Achi",
		"admin1": "Bolivar",
		"admin2": null,
		"country_iso2": "CO"
	},
	{
		"name": "Zona T - Achi (Bolívar)",
		"external_id": "311666772274561",
		"external_id_source": "facebook_places",
		"lat": 8.5706285765,
		"lng": -74.5565712874,
		"address": null,
		"minimum_age": 0.0,
		"url": "https://www.instagram.com/explore/locations/311666772274561",
		"city": "Achi",
		"admin1": "Bolivar",
		"admin2": null,
		"country_iso2": "CO"
	},
	{
		"name": "Hotel La Iguana de Santa Fé",
		"external_id": "111725484004832",
		"external_id_source": "facebook_places",
		"lat": 6.55936,
		"lng": -75.82833,
		"address": "Km2 Vereda Pan Gordito - Santa Fe de Antioquia, Santa Fe De Antioquia, Antioquia, Colombia",
		"minimum_age": 0.0,
		"url": "https://www.instagram.com/explore/locations/111725484004832",
		"city": "Antioquia",
		"admin1": "Antioquia",
		"admin2": null,
		"country_iso2": "CO"
	},
	{
		"name": "Hotel Las Margaritas",
		"external_id": "638999332909686",
		"external_id_source": "facebook_places",
		"lat": 6.5195662214,
		"lng": -75.8174293609,
		"address": "san jerónimo , San Jerónimo, Antioquia",
		"minimum_age": 0.0,
		"url": "https://www.instagram.com/explore/locations/638999332909686",
		"city": "Antioquia",
		"admin1": "Antioquia",
		"admin2": null,
		"country_iso2": "CO"
	},
	{
		"name": "La Quinta Glamping",
		"external_id": "1387393268177213",
		"external_id_source": "facebook_places",
		"lat": 5.5820067892,
		"lng": -72.9262128688,
		"address": "Cuitiva - Boyacá, Cuítiva",
		"minimum_age": 0.0,
		"url": "https://www.instagram.com/explore/locations/1387393268177213",
		"city": "Aquitania",
		"admin1": "Boyaca",
		"admin2": null,
		"country_iso2": "CO"
	},
	{
		"name": "Hotel Hacienda Combia",
		"external_id": "292722067539039",
		"external_id_source": "facebook_places",
		"lat": 4.4917981639,
		"lng": -75.6863217169,
		"address": "Km 4 Vía al Valle, Vereda La Bella, Calarcá, Quindío-Colombia, Calarcá",
		"minimum_age": 0.0,
		"url": "https://www.instagram.com/explore/locations/292722067539039",
		"city": "Armenia",
		"admin1": "Quindio",
		"admin2": null,
		"country_iso2": "CO"
	},
	{
		"name": "Canoa club",
		"external_id": "524965634337107",
		"external_id_source": "facebook_places",
		"lat": 8.3144482841,
		"lng": -75.135994,
		"address": "Ayapel",
		"minimum_age": 0.0,
		"url": "https://www.instagram.com/explore/locations/524965634337107",
		"city": "Ayapel",
		"admin1": "Cordoba",
		"admin2": null,
		"country_iso2": "CO"
	},
	{
		"name": "Finca Hotel Wayra",
		"external_id": "1313571798716072",
		"external_id_source": "facebook_places",
		"lat": 6.49659254,
		"lng": -75.2689218521,
		"address": "Wayra Finca, Barbosa (Antioquia)",
		"minimum_age": 0.0,
		"url": "https://www.instagram.com/explore/locations/1313571798716072",
		"city": "Barbosa",
		"admin1": "Antioquia",
		"admin2": null,
		"country_iso2": "CO"
	},
	{
		"name": "Hotel Hicasua",
		"external_id": "100799162622997",
		"external_id_source": "facebook_places",
		"lat": 6.6334231,
		"lng": -73.2219749,
		"address": "Calle 7 No 3-85",
		"minimum_age": 0.0,
		"url": "https://www.instagram.com/explore/locations/100799162622997",
		"city": "Barichara",
		"admin1": "Santander",
		"admin2": null,
		"country_iso2": "CO"
	},
	{
		"name": "Hotel Terra Barichara",
		"external_id": "343578709005430",
		"external_id_source": "facebook_places",
		"lat": 6.641614206,
		"lng": -73.1912109555,
		"address": "KM 16 VIA SANGIL- BARICHARA, Barichara, Colombia",
		"minimum_age": 0.0,
		"url": "https://www.instagram.com/explore/locations/343578709005430",
		"city": "Barichara",
		"admin1": "Santander",
		"admin2": null,
		"country_iso2": "CO"
	},
	{
		"name": "En El Patio Rumbero",
		"external_id": "1935408146699280",
		"external_id_source": "facebook_places",
		"lat": 10.9705796,
		"lng": -74.7782471,
		"address": null,
		"minimum_age": 0.0,
		"url": "https://www.instagram.com/explore/locations/1935408146699280",
		"city": "Barranquilla",
		"admin1": "Atlantico",
		"admin2": null,
		"country_iso2": "CO"
	},
	{
		"name": "La Popular",
		"external_id": "1030485178",
		"external_id_source": null,
		"lat": null,
		"lng": null,
		"address": null,
		"minimum_age": null,
		"url": "https://www.instagram.com/explore/locations/1030485178",
		"city": "Barranquilla",
		"admin1": null,
		"admin2": null,
		"country_iso2": null
	},
	{
		"name": "Rancho Currambero Norte",
		"external_id": "105300557712570",
		"external_id_source": "facebook_places",
		"lat": 10.9929699058,
		"lng": -74.8088585303,
		"address": "Calle 74#43-24",
		"minimum_age": 0.0,
		"url": "https://www.instagram.com/explore/locations/105300557712570",
		"city": "Barranquilla",
		"admin1": "Atlantico",
		"admin2": null,
		"country_iso2": "CO"
	},
	{
		"name": "Restaurante La Punta Gorda",
		"external_id": "668887823265169",
		"external_id_source": "facebook_places",
		"lat": 10.9930776714,
		"lng": -74.81010675,
		"address": "car 43 #74-75, Barranquilla",
		"minimum_age": 0.0,
		"url": "https://www.instagram.com/explore/locations/668887823265169",
		"city": "Barranquilla",
		"admin1": "Atlantico",
		"admin2": null,
		"country_iso2": "CO"
	},
	{
		"name": "440 Music Hall",
		"external_id": "1546739355629760",
		"external_id_source": "facebook_places",
		"lat": 4.6682685003,
		"lng": -74.0544231711,
		"address": null,
		"minimum_age": 0.0,
		"url": "https://www.instagram.com/explore/locations/1546739355629760",
		"city": "Barrio San Luis",
		"admin1": "Bogota D.C.",
		"admin2": null,
		"country_iso2": "CO"
	},
	{
		"name": "Andres  D.C",
		"external_id": "169729483094367",
		"external_id_source": "facebook_places",
		"lat": 4.70253579,
		"lng": -74.041934761,
		"address": "Calle 82 No 12-21, Bogotá, Colombia",
		"minimum_age": 0.0,
		"url": "https://www.instagram.com/explore/locations/169729483094367",
		"city": "Barrio San Luis",
		"admin1": "Bogota D.C.",
		"admin2": null,
		"country_iso2": "CO"
	},
	{
		"name": "Andres Carne de Res DC",
		"external_id": "214089155291463",
		"external_id_source": "facebook_places",
		"lat": 4.6663303775,
		"lng": -74.0544536536,
		"address": "Calle 82 N 12- 27, Chía, Cundinamarca",
		"minimum_age": 0.0,
		"url": "https://www.instagram.com/explore/locations/214089155291463",
		"city": "Barrio San Luis",
		"admin1": "Bogota D.C.",
		"admin2": null,
		"country_iso2": "CO"
	},
	{
		"name": "Astoria Rooftop",
		"external_id": "102831818696987",
		"external_id_source": "facebook_places",
		"lat": 4.6689060838,
		"lng": -74.0530443192,
		"address": "Ac. 85 #12-66, Bogotá",
		"minimum_age": 0.0,
		"url": "https://www.instagram.com/explore/locations/102831818696987",
		"city": "Barrio San Luis",
		"admin1": "Bogota D.C.",
		"admin2": null,
		"country_iso2": "CO"
	},
	{
		"name": "Black Bear Cocina",
		"external_id": "656984541038131",
		"external_id_source": "facebook_places",
		"lat": 4.6719784217,
		"lng": -74.0495979453,
		"address": "Carrera 11 A # 89-06",
		"minimum_age": 0.0,
		"url": "https://www.instagram.com/explore/locations/656984541038131",
		"city": "Barrio San Luis",
		"admin1": "Bogota D.C.",
		"admin2": null,
		"country_iso2": "CO"
	},
	{
		"name": "Bogotá Food Corner",
		"external_id": "100628482534466",
		"external_id_source": "facebook_places",
		"lat": 4.70344,
		"lng": -74.04264,
		"address": "Carrera 15 #124-30",
		"minimum_age": 0.0,
		"url": "https://www.instagram.com/explore/locations/100628482534466",
		"city": "Barrio San Luis",
		"admin1": "Bogota D.C.",
		"admin2": null,
		"country_iso2": "CO"
	},
	{
		"name": "Boogaloop TeVe",
		"external_id": "153605074650418",
		"external_id_source": "facebook_places",
		"lat": 4.652126574,
		"lng": -74.0629168,
		"address": "Carrera 13 N. 65 - 42, Bogotá",
		"minimum_age": 0.0,
		"url": "https://www.instagram.com/explore/locations/153605074650418",
		"city": "Barrio San Luis",
		"admin1": "Bogota D.C.",
		"admin2": null,
		"country_iso2": "CO"
	},
	{
		"name": "Bungalow",
		"external_id": "1063644557048337",
		"external_id_source": "facebook_places",
		"lat": 4.6682499,
		"lng": -74.0543,
		"address": "Carrera 13 # 83 - 47, Bogotá",
		"minimum_age": 0.0,
		"url": "https://www.instagram.com/explore/locations/1063644557048337",
		"city": "Barrio San Luis",
		"admin1": "Bogota D.C.",
		"admin2": null,
		"country_iso2": "CO"
	},
	{
		"name": "Cabrera Resto Bar",
		"external_id": "645318605512249",
		"external_id_source": "facebook_places",
		"lat": 4.6677060833,
		"lng": -74.0539877712,
		"address": "Carrera 12 A # 83 -23, Bogotá, Colombia",
		"minimum_age": 0.0,
		"url": "https://www.instagram.com/explore/locations/645318605512249",
		"city": "Barrio San Luis",
		"admin1": "Bogota D.C.",
		"admin2": null,
		"country_iso2": "CO"
	},
	{
		"name": "Cadillac Beer Rock",
		"external_id": "1724248017859875",
		"external_id_source": "facebook_places",
		"lat": 4.6506925958,
		"lng": -74.063000679,
		"address": "Diagonal 45 b sur # 52 c 46. VENECIA , Bogotá",
		"minimum_age": 0.0,
		"url": "https://www.instagram.com/explore/locations/1724248017859875",
		"city": "Barrio San Luis",
		"admin1": "Bogota D.C.",
		"admin2": null,
		"country_iso2": "CO"
	},
	{
		"name": "Cantina La 15",
		"external_id": "101981853508800",
		"external_id_source": "facebook_places",
		"lat": 4.6676269762,
		"lng": -74.0544004155,
		"address": "Carrera 13 # 83-57 , Bogotá",
		"minimum_age": 0.0,
		"url": "https://www.instagram.com/explore/locations/101981853508800",
		"city": "Barrio San Luis",
		"admin1": "Bogota D.C.",
		"admin2": null,
		"country_iso2": "CO"
	},
	{
		"name": "Casa Gaitán Cortés Boutique Hotel",
		"external_id": "212270758815334",
		"external_id_source": "facebook_places",
		"lat": 4.6507561893,
		"lng": -74.0556041876,
		"address": "Calle 69 No.4-97, Bogotá",
		"minimum_age": 0.0,
		"url": "https://www.instagram.com/explore/locations/212270758815334",
		"city": "Barrio San Luis",
		"admin1": "Bogota D.C.",
		"admin2": null,
		"country_iso2": "CO"
	},
	{
		"name": "Casa Matilde Cocina & whisky",
		"external_id": "466952180420824",
		"external_id_source": "facebook_places",
		"lat": 4.6511230095,
		"lng": -74.0553832054,
		"address": "Carrera 5 # 69-34, Bogotá, Colombia",
		"minimum_age": 0.0,
		"url": "https://www.instagram.com/explore/locations/466952180420824",
		"city": "Barrio San Luis",
		"admin1": "Bogota D.C.",
		"admin2": null,
		"country_iso2": "CO"
	},
	{
		"name": "Club El Nogal",
		"external_id": "208168972539057",
		"external_id_source": "facebook_places",
		"lat": 4.6603259845,
		"lng": -74.0506444547,
		"address": "Carrera 7 # 78-96",
		"minimum_age": 0.0,
		"url": "https://www.instagram.com/explore/locations/208168972539057",
		"city": "Barrio San Luis",
		"admin1": "Bogota D.C.",
		"admin2": null,
		"country_iso2": "CO"
	},
	{
		"name": "Coctel Del Mar",
		"external_id": "194183807992208",
		"external_id_source": "facebook_places",
		"lat": 4.7031911575,
		"lng": -74.0489404302,
		"address": "Cra 19 # 123-26",
		"minimum_age": 0.0,
		"url": "https://www.instagram.com/explore/locations/194183807992208",
		"city": "Barrio San Luis",
		"admin1": "Bogota D.C.",
		"admin2": null,
		"country_iso2": "CO"
	},
	{
		"name": "Cóctel Del Mar",
		"external_id": "111309774113323",
		"external_id_source": "facebook_places",
		"lat": 4.6861228552,
		"lng": -74.0496828607,
		"address": "Ac 100 # 16-56",
		"minimum_age": 0.0,
		"url": "https://www.instagram.com/explore/locations/111309774113323",
		"city": "Barrio San Luis",
		"admin1": "Bogota D.C.",
		"admin2": null,
		"country_iso2": "CO"
	},
	{
		"name": "Crepes & Waffles",
		"external_id": "1684147365238356",
		"external_id_source": "facebook_places",
		"lat": 4.70087,
		"lng": -74.0494,
		"address": "Avenida 19 # 120 - 16",
		"minimum_age": 0.0,
		"url": "https://www.instagram.com/explore/locations/1684147365238356",
		"city": "Barrio San Luis",
		"admin1": "Bogota D.C.",
		"admin2": null,
		"country_iso2": "CO"
	},
	{
		"name": "Criterion",
		"external_id": "154222401312130",
		"external_id_source": "facebook_places",
		"lat": 4.6517035803,
		"lng": -74.0560129824,
		"address": "Calle 69A # 5-75, Bogotá",
		"minimum_age": 0.0,
		"url": "https://www.instagram.com/explore/locations/154222401312130",
		"city": "Barrio San Luis",
		"admin1": "Bogota D.C.",
		"admin2": null,
		"country_iso2": "CO"
	},
	{
		"name": "Diavla D.C",
		"external_id": "108424548266867",
		"external_id_source": "facebook_places",
		"lat": 4.66867,
		"lng": -74.05484,
		"address": "Carrera 14 # 83 - 53",
		"minimum_age": 0.0,
		"url": "https://www.instagram.com/explore/locations/108424548266867",
		"city": "Barrio San Luis",
		"admin1": "Bogota D.C.",
		"admin2": null,
		"country_iso2": "CO"
	},
	{
		"name": "El Corozo",
		"external_id": "398243910319944",
		"external_id_source": "facebook_places",
		"lat": 4.6681040908,
		"lng": -74.0550720692,
		"address": "Carrera 14 #82 -87, Bogotá",
		"minimum_age": 0.0,
		"url": "https://www.instagram.com/explore/locations/398243910319944",
		"city": "Barrio San Luis",
		"admin1": "Bogota D.C.",
		"admin2": null,
		"country_iso2": "CO"
	},
	{
		"name": "El Fabuloso",
		"external_id": "493960904033804",
		"external_id_source": "facebook_places",
		"lat": 4.6696578036,
		"lng": -74.054763592,
		"address": "Calle 85, Bogotá ",
		"minimum_age": 0.0,
		"url": "https://www.instagram.com/explore/locations/493960904033804",
		"city": "Barrio San Luis",
		"admin1": "Bogota D.C.",
		"admin2": null,
		"country_iso2": "CO"
	},
	{
		"name": "El Mono Bandido",
		"external_id": "107493391546058",
		"external_id_source": "facebook_places",
		"lat": 4.66787,
		"lng": -74.05434,
		"address": "Cra 13 # 83-18",
		"minimum_age": 0.0,
		"url": "https://www.instagram.com/explore/locations/107493391546058",
		"city": "Barrio San Luis",
		"admin1": "Bogota D.C.",
		"admin2": null,
		"country_iso2": "CO"
	},
	{
		"name": "El Mono Bandido",
		"external_id": "113445280139954",
		"external_id_source": "facebook_places",
		"lat": 4.70493,
		"lng": -74.04871,
		"address": "Ak. 19 # 125-34",
		"minimum_age": 0.0,
		"url": "https://www.instagram.com/explore/locations/113445280139954",
		"city": "Barrio San Luis",
		"admin1": "Bogota D.C.",
		"admin2": null,
		"country_iso2": "CO"
	},
	{
		"name": "Frenessí",
		"external_id": "108848638224134",
		"external_id_source": "facebook_places",
		"lat": 4.6802808,
		"lng": -74.0577763,
		"address": "Autopista Norte 114 - 44, Bogotá",
		"minimum_age": 0.0,
		"url": "https://www.instagram.com/explore/locations/108848638224134",
		"city": "Barrio San Luis",
		"admin1": "Bogota D.C.",
		"admin2": null,
		"country_iso2": "CO"
	},
	{
		"name": "Hotel Andes Plaza",
		"external_id": "280644852005742",
		"external_id_source": "facebook_places",
		"lat": 4.6857817,
		"lng": -74.0483448,
		"address": "Cra. 15 #100-11, Bogotá, Colombia",
		"minimum_age": 0.0,
		"url": "https://www.instagram.com/explore/locations/280644852005742",
		"city": "Barrio San Luis",
		"admin1": "Bogota D.C.",
		"admin2": null,
		"country_iso2": "CO"
	},
	{
		"name": "Hotel Bogotá 100",
		"external_id": "349628532525692",
		"external_id_source": "facebook_places",
		"lat": 4.6846463485,
		"lng": -74.0470147133,
		"address": "Calle 100 # 14 - 26",
		"minimum_age": 0.0,
		"url": "https://www.instagram.com/explore/locations/349628532525692",
		"city": "Barrio San Luis",
		"admin1": "Bogota D.C.",
		"admin2": null,
		"country_iso2": "CO"
	},
	{
		"name": "Hotel Dann Carlton Bogota",
		"external_id": "347953884585",
		"external_id_source": "facebook_places",
		"lat": 4.6874265215,
		"lng": -74.047293663,
		"address": "Avenida 15 No. 103-60, Bogotá, Colombia",
		"minimum_age": 0.0,
		"url": "https://www.instagram.com/explore/locations/347953884585",
		"city": "Barrio San Luis",
		"admin1": "Bogota D.C.",
		"admin2": null,
		"country_iso2": "CO"
	},
	{
		"name": "Hoteles Cosmos",
		"external_id": "513861931985199",
		"external_id_source": "facebook_places",
		"lat": 4.6860230701,
		"lng": -74.0543827415,
		"address": "Calle 100 # 19A 83 , Bogotá, Colombia",
		"minimum_age": 0.0,
		"url": "https://www.instagram.com/explore/locations/513861931985199",
		"city": "Barrio San Luis",
		"admin1": "Bogota D.C.",
		"admin2": null,
		"country_iso2": "CO"
	},
	{
		"name": "Il Forno",
		"external_id": "101381708162030",
		"external_id_source": "facebook_places",
		"lat": 4.6516346,
		"lng": -74.0555154,
		"address": "Calle 69a 5-32, Bogotá, Colombia",
		"minimum_age": 0.0,
		"url": "https://www.instagram.com/explore/locations/101381708162030",
		"city": "Barrio San Luis",
		"admin1": "Bogota D.C.",
		"admin2": null,
		"country_iso2": "CO"
	},
	{
		"name": "Kaputt Club",
		"external_id": "527820621022714",
		"external_id_source": "facebook_places",
		"lat": 4.6604552,
		"lng": -74.0619432,
		"address": "Avenida Caracas No. 72a-19, Bogotá",
		"minimum_age": 0.0,
		"url": "https://www.instagram.com/explore/locations/527820621022714",
		"city": "Barrio San Luis",
		"admin1": "Bogota D.C.",
		"admin2": null,
		"country_iso2": "CO"
	},
	{
		"name": "La Alcagüeta",
		"external_id": "1733135130234945",
		"external_id_source": "facebook_places",
		"lat": 4.6684243467,
		"lng": -74.0553779611,
		"address": "Carrera 14A #83 - 06, Bogotá",
		"minimum_age": 0.0,
		"url": "https://www.instagram.com/explore/locations/1733135130234945",
		"city": "Barrio San Luis",
		"admin1": "Bogota D.C.",
		"admin2": null,
		"country_iso2": "CO"
	},
	{
		"name": "La Bolera desde 1976",
		"external_id": "573336519406346",
		"external_id_source": "facebook_places",
		"lat": 4.7012842401,
		"lng": -74.0413308675,
		"address": "Unicentro, Bogotá, Colombia",
		"minimum_age": 0.0,
		"url": "https://www.instagram.com/explore/locations/573336519406346",
		"city": "Barrio San Luis",
		"admin1": "Bogota D.C.",
		"admin2": null,
		"country_iso2": "CO"
	},
	{
		"name": "La Chula Bar",
		"external_id": "127746180764119",
		"external_id_source": "facebook_places",
		"lat": 4.698938,
		"lng": -74.0503469,
		"address": " calle 116 #19-50, Bogotá, Colombia",
		"minimum_age": 0.0,
		"url": "https://www.instagram.com/explore/locations/127746180764119",
		"city": "Barrio San Luis",
		"admin1": "Bogota D.C.",
		"admin2": null,
		"country_iso2": "CO"
	},
	{
		"name": "La Lupita Restorán",
		"external_id": "240855336480240",
		"external_id_source": "facebook_places",
		"lat": 4.6508342848,
		"lng": -74.0549111366,
		"address": "Calle 69a # 4-40, Bogotá, Colombia",
		"minimum_age": 0.0,
		"url": "https://www.instagram.com/explore/locations/240855336480240",
		"city": "Barrio San Luis",
		"admin1": "Bogota D.C.",
		"admin2": null,
		"country_iso2": "CO"
	},
	{
		"name": "Le Coco Café ️",
		"external_id": "102603571826044",
		"external_id_source": "facebook_places",
		"lat": 4.6512179148,
		"lng": -74.0555473568,
		"address": "Cra 5 # 69-15 , Bogotá",
		"minimum_age": 0.0,
		"url": "https://www.instagram.com/explore/locations/102603571826044",
		"city": "Barrio San Luis",
		"admin1": "Bogota D.C.",
		"admin2": null,
		"country_iso2": "CO"
	},
	{
		"name": "Lula Shots 85",
		"external_id": "223730354310214",
		"external_id_source": "facebook_places",
		"lat": 4.669237574,
		"lng": -74.0551820397,
		"address": "Calle 84 Bis No. 14a-04, Bogotá, Colombia",
		"minimum_age": 0.0,
		"url": "https://www.instagram.com/explore/locations/223730354310214",
		"city": "Barrio San Luis",
		"admin1": "Bogota D.C.",
		"admin2": null,
		"country_iso2": "CO"
	},
	{
		"name": "Lupe 83",
		"external_id": "263882210309759",
		"external_id_source": "facebook_places",
		"lat": 4.6684599,
		"lng": -74.0555573,
		"address": "Calle 83 # 14 - 17, Bogotá, Colombia",
		"minimum_age": 0.0,
		"url": "https://www.instagram.com/explore/locations/263882210309759",
		"city": "Barrio San Luis",
		"admin1": "Bogota D.C.",
		"admin2": null,
		"country_iso2": "CO"
	},
	{
		"name": "Maia Rooftop",
		"external_id": "105352745333018",
		"external_id_source": "facebook_places",
		"lat": 4.6683740734,
		"lng": -74.0554047988,
		"address": "cra 14a #83-37, Bogotá, Distrito Especial, Colombia",
		"minimum_age": 0.0,
		"url": "https://www.instagram.com/explore/locations/105352745333018",
		"city": "Barrio San Luis",
		"admin1": "Bogota D.C.",
		"admin2": null,
		"country_iso2": "CO"
	},
	{
		"name": "Menos 1 Microclub",
		"external_id": "100640301317092",
		"external_id_source": "facebook_places",
		"lat": 4.669611837,
		"lng": -74.0547019243,
		"address": "Calle 85 # 14 - 05 piso -1",
		"minimum_age": 0.0,
		"url": "https://www.instagram.com/explore/locations/100640301317092",
		"city": "Barrio San Luis",
		"admin1": "Bogota D.C.",
		"admin2": null,
		"country_iso2": "CO"
	},
	{
		"name": "Mezcal Mexican Cantina",
		"external_id": "1716221628597012",
		"external_id_source": "facebook_places",
		"lat": 4.6685045256,
		"lng": -74.0552247337,
		"address": "CALLE 83 # 14 - 26",
		"minimum_age": 0.0,
		"url": "https://www.instagram.com/explore/locations/1716221628597012",
		"city": "Barrio San Luis",
		"admin1": "Bogota D.C.",
		"admin2": null,
		"country_iso2": "CO"
	},
	{
		"name": "OPERA BAR",
		"external_id": "891075181256609",
		"external_id_source": "facebook_places",
		"lat": 4.6685805515,
		"lng": -74.0548200852,
		"address": "Cra 14A #83-23",
		"minimum_age": 0.0,
		"url": "https://www.instagram.com/explore/locations/891075181256609",
		"city": "Barrio San Luis",
		"admin1": "Bogota D.C.",
		"admin2": null,
		"country_iso2": "CO"
	},
	{
		"name": "Parque 93 Zona Rosa",
		"external_id": "508864039133637",
		"external_id_source": "facebook_places",
		"lat": 4.6709553,
		"lng": -74.07072,
		"address": null,
		"minimum_age": 0.0,
		"url": "https://www.instagram.com/explore/locations/508864039133637",
		"city": "Barrio San Luis",
		"admin1": "Bogota D.C.",
		"admin2": null,
		"country_iso2": "CO"
	},
	{
		"name": "Perdido Bar Vecino",
		"external_id": "947068672016225",
		"external_id_source": "facebook_places",
		"lat": 4.6504,
		"lng": -74.05554,
		"address": "8 Calle 68 4A, Bogotá, Colombia",
		"minimum_age": 0.0,
		"url": "https://www.instagram.com/explore/locations/947068672016225",
		"city": "Barrio San Luis",
		"admin1": "Bogota D.C.",
		"admin2": null,
		"country_iso2": "CO"
	},
	{
		"name": "Piazza By Storia D'amore",
		"external_id": "105688900936931",
		"external_id_source": "facebook_places",
		"lat": 4.701090309,
		"lng": -74.0442125215,
		"address": "Calle 122 #15a 24 ",
		"minimum_age": 0.0,
		"url": "https://www.instagram.com/explore/locations/105688900936931",
		"city": "Barrio San Luis",
		"admin1": "Bogota D.C.",
		"admin2": null,
		"country_iso2": "CO"
	},
	{
		"name": "Plaza de Usaquen",
		"external_id": "2262711490468448",
		"external_id_source": "facebook_places",
		"lat": 4.7031263323,
		"lng": -74.0576335476,
		"address": "carrera 5",
		"minimum_age": 0.0,
		"url": "https://www.instagram.com/explore/locations/2262711490468448",
		"city": "Barrio San Luis",
		"admin1": "Bogota D.C.",
		"admin2": null,
		"country_iso2": "CO"
	},
	{
		"name": "Restaurante Andrés DC - Bogotá -Colômbia",
		"external_id": "321218564635815",
		"external_id_source": "facebook_places",
		"lat": 4.6859976731,
		"lng": -74.0538699606,
		"address": "Bogotá, Colombia",
		"minimum_age": 0.0,
		"url": "https://www.instagram.com/explore/locations/321218564635815",
		"city": "Barrio San Luis",
		"admin1": "Bogota D.C.",
		"admin2": null,
		"country_iso2": "CO"
	},
	{
		"name": "Restaurante El Cielo Zona G",
		"external_id": "270945882950876",
		"external_id_source": "facebook_places",
		"lat": 4.65142986,
		"lng": -74.0546002,
		"address": "Zona G: Calle 70 #4-47, Bogotá, Colombia",
		"minimum_age": 0.0,
		"url": "https://www.instagram.com/explore/locations/270945882950876",
		"city": "Barrio San Luis",
		"admin1": "Bogota D.C.",
		"admin2": null,
		"country_iso2": "CO"
	},
	{
		"name": "Restaurante Tramonti",
		"external_id": "435693373156643",
		"external_id_source": "facebook_places",
		"lat": 4.6697283215,
		"lng": -74.039862975,
		"address": null,
		"minimum_age": 0.0,
		"url": "https://www.instagram.com/explore/locations/435693373156643",
		"city": "Barrio San Luis",
		"admin1": "Bogota D.C.",
		"admin2": null,
		"country_iso2": "CO"
	},
	{
		"name": "Restaurante Viva La Vida",
		"external_id": "309771616573280",
		"external_id_source": "facebook_places",
		"lat": 4.6982649613,
		"lng": -74.0548137357,
		"address": "Autopista norte # 114-44, Bogotá, Colombia",
		"minimum_age": 0.0,
		"url": "https://www.instagram.com/explore/locations/309771616573280",
		"city": "Barrio San Luis",
		"admin1": "Bogota D.C.",
		"admin2": null,
		"country_iso2": "CO"
	},
	{
		"name": "San Felipe",
		"external_id": "1415619402092675",
		"external_id_source": "facebook_places",
		"lat": 4.6630797616,
		"lng": -74.0636592011,
		"address": "San Felipe",
		"minimum_age": 0.0,
		"url": "https://www.instagram.com/explore/locations/1415619402092675",
		"city": "Barrio San Luis",
		"admin1": "Bogota D.C.",
		"admin2": null,
		"country_iso2": "CO"
	},
	{
		"name": "Seratta Gourmand Market",
		"external_id": "1224384550929616",
		"external_id_source": "facebook_places",
		"lat": 4.6983679987,
		"lng": -74.0546241403,
		"address": "Autopista Norte # 114-44 Piso 2, Bogotá",
		"minimum_age": 0.0,
		"url": "https://www.instagram.com/explore/locations/1224384550929616",
		"city": "Barrio San Luis",
		"admin1": "Bogota D.C.",
		"admin2": null,
		"country_iso2": "CO"
	},
	{
		"name": "Shamua Bar",
		"external_id": "124908744238909",
		"external_id_source": "facebook_places",
		"lat": 4.6974657103,
		"lng": -74.049886332,
		"address": "Cra 19 No. 114-70, Bogotá, Colombia",
		"minimum_age": 0.0,
		"url": "https://www.instagram.com/explore/locations/124908744238909",
		"city": "Barrio San Luis",
		"admin1": "Bogota D.C.",
		"admin2": null,
		"country_iso2": "CO"
	},
	{
		"name": "Snackfitme",
		"external_id": "1359599990871366",
		"external_id_source": "facebook_places",
		"lat": 4.65115,
		"lng": -74.05541,
		"address": "cra 5 # 69 - 26",
		"minimum_age": 0.0,
		"url": "https://www.instagram.com/explore/locations/1359599990871366",
		"city": "Barrio San Luis",
		"admin1": "Bogota D.C.",
		"admin2": null,
		"country_iso2": "CO"
	},
	{
		"name": "Sonesta Hotel Bogotá",
		"external_id": "170059493043125",
		"external_id_source": "facebook_places",
		"lat": 4.7037294947,
		"lng": -74.0433920321,
		"address": "Cra 15a # 125-26, Bogotá, Colombia",
		"minimum_age": 0.0,
		"url": "https://www.instagram.com/explore/locations/170059493043125",
		"city": "Barrio San Luis",
		"admin1": "Bogota D.C.",
		"admin2": null,
		"country_iso2": "CO"
	},
	{
		"name": "Starbucks Zona G",
		"external_id": "2012305948910114",
		"external_id_source": "facebook_places",
		"lat": 4.6515392978,
		"lng": -74.0553384387,
		"address": "Calle 69A # 05-08",
		"minimum_age": 0.0,
		"url": "https://www.instagram.com/explore/locations/2012305948910114",
		"city": "Barrio San Luis",
		"admin1": "Bogota D.C.",
		"admin2": null,
		"country_iso2": "CO"
	},
	{
		"name": "Storia D'amore",
		"external_id": "101439115126820",
		"external_id_source": "facebook_places",
		"lat": 4.667199,
		"lng": -74.054773,
		"address": "Cr 13 # 82-36",
		"minimum_age": 0.0,
		"url": "https://www.instagram.com/explore/locations/101439115126820",
		"city": "Barrio San Luis",
		"admin1": "Bogota D.C.",
		"admin2": null,
		"country_iso2": "CO"
	},
	{
		"name": "Teriyaki Sushi Bar Av. 19",
		"external_id": "218753748151449",
		"external_id_source": "facebook_places",
		"lat": 4.701127045,
		"lng": -74.0492706618,
		"address": "AK 19 # 120 - 48, Bogotá, Colombia",
		"minimum_age": 0.0,
		"url": "https://www.instagram.com/explore/locations/218753748151449",
		"city": "Barrio San Luis",
		"admin1": "Bogota D.C.",
		"admin2": null,
		"country_iso2": "CO"
	},
	{
		"name": "Tramonti Restaurante",
		"external_id": "693463547339155",
		"external_id_source": "facebook_places",
		"lat": 4.6696576669,
		"lng": -74.0387526908,
		"address": "Carrera 1 # 93-50, Bogotá",
		"minimum_age": 0.0,
		"url": "https://www.instagram.com/explore/locations/693463547339155",
		"city": "Barrio San Luis",
		"admin1": "Bogota D.C.",
		"admin2": null,
		"country_iso2": "CO"
	},
	{
		"name": "Vintrash Bar",
		"external_id": "1587415424690890",
		"external_id_source": "facebook_places",
		"lat": 4.6678221503,
		"lng": -74.0523307887,
		"address": "Calle 85 # 11 - 53",
		"minimum_age": 0.0,
		"url": "https://www.instagram.com/explore/locations/1587415424690890",
		"city": "Barrio San Luis",
		"admin1": "Bogota D.C.",
		"admin2": null,
		"country_iso2": "CO"
	},
	{
		"name": "VITTO",
		"external_id": "1644424262446501",
		"external_id_source": "facebook_places",
		"lat": 4.6507428815,
		"lng": -74.0556126915,
		"address": "CALLE 69 #4-97, Bogotá, Colombia",
		"minimum_age": 0.0,
		"url": "https://www.instagram.com/explore/locations/1644424262446501",
		"city": "Barrio San Luis",
		"admin1": "Bogota D.C.",
		"admin2": null,
		"country_iso2": "CO"
	},
	{
		"name": "W Bogota Hotel",
		"external_id": "1445970165634834",
		"external_id_source": "facebook_places",
		"lat": 4.693273,
		"lng": -74.034641,
		"address": "Avenida Carrera 9, #115 - 30, Bogota",
		"minimum_age": 0.0,
		"url": "https://www.instagram.com/explore/locations/1445970165634834",
		"city": "Barrio San Luis",
		"admin1": "Bogota D.C.",
		"admin2": null,
		"country_iso2": "CO"
	},
	{
		"name": "WOK Av. 19",
		"external_id": "135610413175148",
		"external_id_source": "facebook_places",
		"lat": 4.7002797981,
		"lng": -74.0498634492,
		"address": "Avenida 19 No. 118-75, Bogotá, Colombia",
		"minimum_age": 0.0,
		"url": "https://www.instagram.com/explore/locations/135610413175148",
		"city": "Barrio San Luis",
		"admin1": "Bogota D.C.",
		"admin2": null,
		"country_iso2": "CO"
	},
	{
		"name": "WOW Restaurante Show",
		"external_id": "114278527925400",
		"external_id_source": "facebook_places",
		"lat": 4.66764,
		"lng": -74.05522,
		"address": "carrera 14 #82-40, Batan, Bogota",
		"minimum_age": 0.0,
		"url": "https://www.instagram.com/explore/locations/114278527925400",
		"city": "Barrio San Luis",
		"admin1": "Bogota D.C.",
		"admin2": null,
		"country_iso2": "CO"
	},
	{
		"name": "Zona G",
		"external_id": "189340647929177",
		"external_id_source": "facebook_places",
		"lat": 4.65174252,
		"lng": -74.0556868994,
		"address": "Cra 6 # 69a - 20, Bogotá, Colombia",
		"minimum_age": 0.0,
		"url": "https://www.instagram.com/explore/locations/189340647929177",
		"city": "Barrio San Luis",
		"admin1": "Bogota D.C.",
		"admin2": null,
		"country_iso2": "CO"
	},
	{
		"name": "Zona Rosa",
		"external_id": "1436388326662511",
		"external_id_source": "facebook_places",
		"lat": 4.668372288,
		"lng": -74.056319358,
		"address": "CRA 14 A 83-44",
		"minimum_age": 0.0,
		"url": "https://www.instagram.com/explore/locations/1436388326662511",
		"city": "Barrio San Luis",
		"admin1": "Bogota D.C.",
		"admin2": null,
		"country_iso2": "CO"
	},
	{
		"name": "(((( SALSA BAR CASTILLA )))) Calle 9 #77-22",
		"external_id": "1380394958855872",
		"external_id_source": "facebook_places",
		"lat": 4.6414577879,
		"lng": -74.1399299236,
		"address": "Calle 9 # 77-22",
		"minimum_age": 0.0,
		"url": "https://www.instagram.com/explore/locations/1380394958855872",
		"city": "Bogota",
		"admin1": "Bogota D.C.",
		"admin2": null,
		"country_iso2": "CO"
	},
	{
		"name": "Beer House Plaza",
		"external_id": "243183762391551",
		"external_id_source": "facebook_places",
		"lat": 4.617768679,
		"lng": -74.1376057761,
		"address": "Calle 8 sur # 71d - 20 Local 7, Bogotá, Colombia",
		"minimum_age": 0.0,
		"url": "https://www.instagram.com/explore/locations/243183762391551",
		"city": "Bogota",
		"admin1": "Bogota D.C.",
		"admin2": null,
		"country_iso2": "CO"
	},
	{
		"name": "Bombay Rooftop",
		"external_id": "109779371717731",
		"external_id_source": "facebook_places",
		"lat": 4.5991813,
		"lng": -74.0826756,
		"address": "Cra 13 #85-65 Piso 8, Bogotá",
		"minimum_age": 0.0,
		"url": "https://www.instagram.com/explore/locations/109779371717731",
		"city": "Bogota",
		"admin1": "Bogota D.C.",
		"admin2": null,
		"country_iso2": "CO"
	},
	{
		"name": "Borinquen Latin Club",
		"external_id": "111162831334865",
		"external_id_source": "facebook_places",
		"lat": 4.61873,
		"lng": -74.13786,
		"address": "Calle 6 sur # 71 D 25",
		"minimum_age": 0.0,
		"url": "https://www.instagram.com/explore/locations/111162831334865",
		"city": "Bogota",
		"admin1": "Bogota D.C.",
		"admin2": null,
		"country_iso2": "CO"
	},
	{
		"name": "Brazzerio Restaurante",
		"external_id": "1380787418808512",
		"external_id_source": "facebook_places",
		"lat": 4.6179343344,
		"lng": -74.0862587621,
		"address": "Calima Centro Comercial",
		"minimum_age": 0.0,
		"url": "https://www.instagram.com/explore/locations/1380787418808512",
		"city": "Bogota",
		"admin1": "Bogota D.C.",
		"admin2": null,
		"country_iso2": "CO"
	},
	{
		"name": "Bronx Distrito Creativo",
		"external_id": "1872474759641556",
		"external_id_source": "facebook_places",
		"lat": 4.6015483195,
		"lng": -74.082389831,
		"address": "Cr 15 # 10",
		"minimum_age": 0.0,
		"url": "https://www.instagram.com/explore/locations/1872474759641556",
		"city": "Bogota",
		"admin1": "Bogota D.C.",
		"admin2": null,
		"country_iso2": "CO"
	},
	{
		"name": "CAÑA BRAVA SALSA BAR",
		"external_id": "275239219947015",
		"external_id_source": "facebook_places",
		"lat": 4.6186692126,
		"lng": -74.1379961792,
		"address": "Cl 6 sur #71D-19 Bogota, Colombia, Bogotá",
		"minimum_age": 0.0,
		"url": "https://www.instagram.com/explore/locations/275239219947015",
		"city": "Bogota",
		"admin1": "Bogota D.C.",
		"admin2": null,
		"country_iso2": "CO"
	},
	{
		"name": "Casa Babylon Restaurante",
		"external_id": "286028186310",
		"external_id_source": "facebook_places",
		"lat": 4.6359789321,
		"lng": -74.0639946468,
		"address": "calle 49 n 7-27, Bogotá, Colombia",
		"minimum_age": 0.0,
		"url": "https://www.instagram.com/explore/locations/286028186310",
		"city": "Bogota",
		"admin1": "Bogota D.C.",
		"admin2": null,
		"country_iso2": "CO"
	},
	{
		"name": "Casa salvaje",
		"external_id": "245661929410612",
		"external_id_source": "facebook_places",
		"lat": 4.5736819468,
		"lng": -74.136476107,
		"address": "Cra 21 # 53/88 galerías , Bogotá, Colombia",
		"minimum_age": 0.0,
		"url": "https://www.instagram.com/explore/locations/245661929410612",
		"city": "Bogota",
		"admin1": "Bogota D.C.",
		"admin2": null,
		"country_iso2": "CO"
	},
	{
		"name": "Chorro de Quevedo",
		"external_id": "147661778637971",
		"external_id_source": "facebook_places",
		"lat": 4.5972546306,
		"lng": -74.0697705746,
		"address": "cra 1A# 12B-20, Bogotá",
		"minimum_age": 0.0,
		"url": "https://www.instagram.com/explore/locations/147661778637971",
		"city": "Bogota",
		"admin1": "Bogota D.C.",
		"admin2": null,
		"country_iso2": "CO"
	},
	{
		"name": "Crepes & Waffles",
		"external_id": "567544310096196",
		"external_id_source": "facebook_places",
		"lat": 4.6181066085,
		"lng": -74.0862555267,
		"address": "Carrera 30 con calle 19",
		"minimum_age": 0.0,
		"url": "https://www.instagram.com/explore/locations/567544310096196",
		"city": "Bogota",
		"admin1": "Bogota D.C.",
		"admin2": null,
		"country_iso2": "CO"
	},
	{
		"name": "Cuadra Picha",
		"external_id": "433406186740330",
		"external_id_source": "facebook_places",
		"lat": 4.618751653,
		"lng": -74.1379605953,
		"address": null,
		"minimum_age": 0.0,
		"url": "https://www.instagram.com/explore/locations/433406186740330",
		"city": "Bogota",
		"admin1": "Bogota D.C.",
		"admin2": null,
		"country_iso2": "CO"
	},
	{
		"name": "Ditirambo Teatro",
		"external_id": "78285569710",
		"external_id_source": "facebook_places",
		"lat": 4.6330221857,
		"lng": -74.0681682857,
		"address": "Calle 45a Nº 14 - 37, Bogotá, Colombia",
		"minimum_age": 0.0,
		"url": "https://www.instagram.com/explore/locations/78285569710",
		"city": "Bogota",
		"admin1": "Bogota D.C.",
		"admin2": null,
		"country_iso2": "CO"
	},
	{
		"name": "El Parque de Los Hippies",
		"external_id": "135995696472326",
		"external_id_source": "facebook_places",
		"lat": 4.645401961,
		"lng": -74.0619707108,
		"address": "Cll. 60 con Cra. 7, Bogotá, Colombia",
		"minimum_age": 0.0,
		"url": "https://www.instagram.com/explore/locations/135995696472326",
		"city": "Bogota",
		"admin1": "Bogota D.C.",
		"admin2": null,
		"country_iso2": "CO"
	},
	{
		"name": "Experimental Metal Bar.",
		"external_id": "111932843485447",
		"external_id_source": "facebook_places",
		"lat": 4.6187637212,
		"lng": -74.1381669044,
		"address": "Calle 6sur # 71D 55 Piso 2, Bogotá, Colombia",
		"minimum_age": 0.0,
		"url": "https://www.instagram.com/explore/locations/111932843485447",
		"city": "Bogota",
		"admin1": "Bogota D.C.",
		"admin2": null,
		"country_iso2": "CO"
	},
	{
		"name": "Grand Hyatt Bogota",
		"external_id": "359020424520336",
		"external_id_source": "facebook_places",
		"lat": 4.6443753755,
		"lng": -74.1000580788,
		"address": "Calle 24 A # 57 – 60, Bogotá",
		"minimum_age": 0.0,
		"url": "https://www.instagram.com/explore/locations/359020424520336",
		"city": "Bogota",
		"admin1": "Bogota D.C.",
		"admin2": null,
		"country_iso2": "CO"
	},
	{
		"name": "Holiday Inn Bogota Airport",
		"external_id": "1378672915732286",
		"external_id_source": "facebook_places",
		"lat": 4.6619209701,
		"lng": -74.1101107473,
		"address": "Avenida Calle 26, Number 69D-91, Bogota",
		"minimum_age": 0.0,
		"url": "https://www.instagram.com/explore/locations/1378672915732286",
		"city": "Bogota",
		"admin1": "Bogota D.C.",
		"admin2": null,
		"country_iso2": "CO"
	},
	{
		"name": "Kronns Bar",
		"external_id": "352489151473675",
		"external_id_source": "facebook_places",
		"lat": 4.617727,
		"lng": -74.13804824,
		"address": "Crr 71 D # 6 61 sur, Bogotá, Colombia",
		"minimum_age": 0.0,
		"url": "https://www.instagram.com/explore/locations/352489151473675",
		"city": "Bogota",
		"admin1": "Bogota D.C.",
		"admin2": null,
		"country_iso2": "CO"
	},
	{
		"name": "La Diez Vip",
		"external_id": "1577016179194324",
		"external_id_source": "facebook_places",
		"lat": 4.6184732532,
		"lng": -74.13859,
		"address": "Cll 6 sur # 71D 73, Bogotá, Colombia",
		"minimum_age": 0.0,
		"url": "https://www.instagram.com/explore/locations/1577016179194324",
		"city": "Bogota",
		"admin1": "Bogota D.C.",
		"admin2": null,
		"country_iso2": "CO"
	},
	{
		"name": "Monserrate",
		"external_id": "602714950210178",
		"external_id_source": "facebook_places",
		"lat": 4.69389,
		"lng": -74.11013,
		"address": "Bogotá, Colombia",
		"minimum_age": 0.0,
		"url": "https://www.instagram.com/explore/locations/602714950210178",
		"city": "Bogota",
		"admin1": "Bogota D.C.",
		"admin2": null,
		"country_iso2": "CO"
	},
	{
		"name": "Natural Salsa Club",
		"external_id": "318656178962940",
		"external_id_source": "facebook_places",
		"lat": 4.6210020149,
		"lng": -74.137357878,
		"address": "carrera 71 D N 2 A 13 Plaza De Las Americas",
		"minimum_age": 0.0,
		"url": "https://www.instagram.com/explore/locations/318656178962940",
		"city": "Bogota",
		"admin1": "Bogota D.C.",
		"admin2": null,
		"country_iso2": "CO"
	},
	{
		"name": "Paradaise nigth club",
		"external_id": "1733913450206035",
		"external_id_source": "facebook_places",
		"lat": 4.6177847841,
		"lng": -74.1376388174,
		"address": "av boyaca 64 c 45, Bogotá, Colombia",
		"minimum_age": 0.0,
		"url": "https://www.instagram.com/explore/locations/1733913450206035",
		"city": "Bogota",
		"admin1": "Bogota D.C.",
		"admin2": null,
		"country_iso2": "CO"
	},
	{
		"name": "Parque Lourdes",
		"external_id": "143619996279231",
		"external_id_source": "facebook_places",
		"lat": 4.6494774114,
		"lng": -74.0632449913,
		"address": "Carrera 13 # 63-30",
		"minimum_age": 0.0,
		"url": "https://www.instagram.com/explore/locations/143619996279231",
		"city": "Bogota",
		"admin1": "Bogota D.C.",
		"admin2": null,
		"country_iso2": "CO"
	},
	{
		"name": "Plaza Lourdes",
		"external_id": "1983095711947781",
		"external_id_source": "facebook_places",
		"lat": 4.6497238235,
		"lng": -74.0636730994,
		"address": "Carrera 13 entre calles 63 y 64",
		"minimum_age": 0.0,
		"url": "https://www.instagram.com/explore/locations/1983095711947781",
		"city": "Bogota",
		"admin1": "Bogota D.C.",
		"admin2": null,
		"country_iso2": "CO"
	},
	{
		"name": "Rodizzio Brazzeiro Calima Bogota",
		"external_id": "1757800317855375",
		"external_id_source": "facebook_places",
		"lat": 4.6178609491,
		"lng": -74.0861460965,
		"address": "Centro Comercial Calima",
		"minimum_age": 0.0,
		"url": "https://www.instagram.com/explore/locations/1757800317855375",
		"city": "Bogota",
		"admin1": "Bogota D.C.",
		"admin2": null,
		"country_iso2": "CO"
	},
	{
		"name": "Sambernardo",
		"external_id": "231297444064450",
		"external_id_source": "facebook_places",
		"lat": 4.5926677555,
		"lng": -74.0842160329,
		"address": "Sambernardo",
		"minimum_age": 0.0,
		"url": "https://www.instagram.com/explore/locations/231297444064450",
		"city": "Bogota",
		"admin1": "Bogota D.C.",
		"admin2": null,
		"country_iso2": "CO"
	},
	{
		"name": "Stones Rock Bogotá",
		"external_id": "268019986586222",
		"external_id_source": "facebook_places",
		"lat": 4.6188626636,
		"lng": -74.138115844,
		"address": "Calle 24C #75-59",
		"minimum_age": 0.0,
		"url": "https://www.instagram.com/explore/locations/268019986586222",
		"city": "Bogota",
		"admin1": "Bogota D.C.",
		"admin2": null,
		"country_iso2": "CO"
	},
	{
		"name": "The Grange Bar Records",
		"external_id": "405723666956238",
		"external_id_source": "facebook_places",
		"lat": 4.65125,
		"lng": -74.06389,
		"address": "Calle 64 #13-66 Piso 2, Bogotá, Colombia",
		"minimum_age": 0.0,
		"url": "https://www.instagram.com/explore/locations/405723666956238",
		"city": "Bogota",
		"admin1": "Bogota D.C.",
		"admin2": null,
		"country_iso2": "CO"
	},
	{
		"name": "THEATRON DE PELICULA",
		"external_id": "150759830936",
		"external_id_source": "facebook_places",
		"lat": 4.645088496,
		"lng": -74.0639045945,
		"address": "Cl 58 10 - 32, Bogotá",
		"minimum_age": 0.0,
		"url": "https://www.instagram.com/explore/locations/150759830936",
		"city": "Bogota",
		"admin1": "Bogota D.C.",
		"admin2": null,
		"country_iso2": "CO"
	},
	{
		"name": "Usaquén",
		"external_id": "611004379337662",
		"external_id_source": "facebook_places",
		"lat": 4.5997,
		"lng": -74.0794,
		"address": null,
		"minimum_age": 0.0,
		"url": "https://www.instagram.com/explore/locations/611004379337662",
		"city": "Bogota",
		"admin1": "Bogota D.C.",
		"admin2": null,
		"country_iso2": "CO"
	},
	{
		"name": "bar la chula 116",
		"external_id": "141123309830617",
		"external_id_source": null,
		"lat": null,
		"lng": null,
		"address": null,
		"minimum_age": null,
		"url": "https://www.instagram.com/explore/locations/141123309830617",
		"city": "Bogotá",
		"admin1": null,
		"admin2": null,
		"country_iso2": null
	},
	{
		"name": "BBC",
		"external_id": "108326654991203",
		"external_id_source": null,
		"lat": null,
		"lng": null,
		"address": null,
		"minimum_age": null,
		"url": "https://www.instagram.com/explore/locations/108326654991203",
		"city": "Bogotá",
		"admin1": null,
		"admin2": null,
		"country_iso2": null
	},
	{
		"name": "BBC galerías",
		"external_id": "1003817036485233",
		"external_id_source": null,
		"lat": null,
		"lng": null,
		"address": null,
		"minimum_age": null,
		"url": "https://www.instagram.com/explore/locations/1003817036485233",
		"city": "Bogotá",
		"admin1": null,
		"admin2": null,
		"country_iso2": null
	},
	{
		"name": "BBC usaquen",
		"external_id": "214071371",
		"external_id_source": null,
		"lat": null,
		"lng": null,
		"address": null,
		"minimum_age": null,
		"url": "https://www.instagram.com/explore/locations/214071371",
		"city": "Bogotá",
		"admin1": null,
		"admin2": null,
		"country_iso2": null
	},
	{
		"name": "Beer Station",
		"external_id": "143248719687854",
		"external_id_source": null,
		"lat": null,
		"lng": null,
		"address": null,
		"minimum_age": 0.0,
		"url": "https://www.instagram.com/explore/locations/143248719687854",
		"city": "Bogotá",
		"admin1": "Bogotá, D.C.",
		"admin2": null,
		"country_iso2": null
	},
	{
		"name": "Bogota Barrio San Felipe",
		"external_id": "444662835",
		"external_id_source": null,
		"lat": null,
		"lng": null,
		"address": null,
		"minimum_age": null,
		"url": "https://www.instagram.com/explore/locations/444662835",
		"city": "Bogotá",
		"admin1": null,
		"admin2": null,
		"country_iso2": null
	},
	{
		"name": "Cuadra picha",
		"external_id": "40615552",
		"external_id_source": null,
		"lat": null,
		"lng": null,
		"address": null,
		"minimum_age": null,
		"url": "https://www.instagram.com/explore/locations/40615552",
		"city": "Bogotá",
		"admin1": null,
		"admin2": null,
		"country_iso2": null
	},
	{
		"name": "La Catrina Bar",
		"external_id": "606614708",
		"external_id_source": null,
		"lat": null,
		"lng": null,
		"address": null,
		"minimum_age": null,
		"url": "https://www.instagram.com/explore/locations/606614708",
		"city": "Bogotá",
		"admin1": null,
		"admin2": null,
		"country_iso2": null
	},
	{
		"name": "La cervecería",
		"external_id": "913730428780444",
		"external_id_source": null,
		"lat": null,
		"lng": null,
		"address": null,
		"minimum_age": null,
		"url": "https://www.instagram.com/explore/locations/913730428780444",
		"city": "Bogotá",
		"admin1": null,
		"admin2": null,
		"country_iso2": null
	},
	{
		"name": "petrabar",
		"external_id": "10607470",
		"external_id_source": null,
		"lat": null,
		"lng": null,
		"address": null,
		"minimum_age": null,
		"url": "https://www.instagram.com/explore/locations/10607470",
		"city": "Bogotá",
		"admin1": null,
		"admin2": null,
		"country_iso2": null
	},
	{
		"name": "Villanueva, tierra de acordeoneros",
		"external_id": "391030518",
		"external_id_source": null,
		"lat": null,
		"lng": null,
		"address": null,
		"minimum_age": null,
		"url": "https://www.instagram.com/explore/locations/391030518",
		"city": "Bogotá",
		"admin1": null,
		"admin2": null,
		"country_iso2": null
	},
	{
		"name": "Zona T Bogota D.C.",
		"external_id": "216194620",
		"external_id_source": null,
		"lat": null,
		"lng": null,
		"address": null,
		"minimum_age": null,
		"url": "https://www.instagram.com/explore/locations/216194620",
		"city": "Bogotá",
		"admin1": null,
		"admin2": null,
		"country_iso2": null
	},
	{
		"name": "BAMBA",
		"external_id": "168636673208547",
		"external_id_source": "facebook_places",
		"lat": 7.1136778356,
		"lng": -73.1080618298,
		"address": "Cra 36 # 51 - 131, Bucaramanga",
		"minimum_age": 0.0,
		"url": "https://www.instagram.com/explore/locations/168636673208547",
		"city": "Bucaramanga",
		"admin1": "Santander",
		"admin2": null,
		"country_iso2": "CO"
	},
	{
		"name": "BBC Bucaramanga",
		"external_id": "163353067576306",
		"external_id_source": "facebook_places",
		"lat": 7.1150782428,
		"lng": -73.1083599578,
		"address": "Carrera 36 # 49 - 45 Local 106A",
		"minimum_age": 0.0,
		"url": "https://www.instagram.com/explore/locations/163353067576306",
		"city": "Bucaramanga",
		"admin1": "Santander",
		"admin2": null,
		"country_iso2": "CO"
	},
	{
		"name": "BBC Cervecería",
		"external_id": "101833738875115",
		"external_id_source": "facebook_places",
		"lat": 7.115058,
		"lng": -73.10825,
		"address": "Cra. 36 #49-27/45 Local 106A C.C Quinta Etapa, Bucaramanga",
		"minimum_age": 0.0,
		"url": "https://www.instagram.com/explore/locations/101833738875115",
		"city": "Bucaramanga",
		"admin1": "Santander",
		"admin2": null,
		"country_iso2": "CO"
	},
	{
		"name": "Boissons Pub",
		"external_id": "433422646835192",
		"external_id_source": "facebook_places",
		"lat": 7.115208624,
		"lng": -73.1086015304,
		"address": "C. C. Cuarta Etapa, Bucaramanga",
		"minimum_age": 0.0,
		"url": "https://www.instagram.com/explore/locations/433422646835192",
		"city": "Bucaramanga",
		"admin1": "Santander",
		"admin2": null,
		"country_iso2": "CO"
	},
	{
		"name": "Camacho's Cabecera",
		"external_id": "104908508703740",
		"external_id_source": "facebook_places",
		"lat": 7.1133244937,
		"lng": -73.109184,
		"address": "Calle 52 # 35-06, Bucaramanga, Santander",
		"minimum_age": 0.0,
		"url": "https://www.instagram.com/explore/locations/104908508703740",
		"city": "Bucaramanga",
		"admin1": "Santander",
		"admin2": null,
		"country_iso2": "CO"
	},
	{
		"name": "Hotel Dann Carlton Bucaramanga",
		"external_id": "163811107012233",
		"external_id_source": "facebook_places",
		"lat": 7.1175660545,
		"lng": -73.1125844983,
		"address": "Calle 47 #28-83, Bucaramanga",
		"minimum_age": 0.0,
		"url": "https://www.instagram.com/explore/locations/163811107012233",
		"city": "Bucaramanga",
		"admin1": "Santander",
		"admin2": null,
		"country_iso2": "CO"
	},
	{
		"name": "La Fabulosa Taquería",
		"external_id": "103016994495535",
		"external_id_source": "facebook_places",
		"lat": 7.113351262,
		"lng": -73.1095450378,
		"address": "Calle 52#34-24",
		"minimum_age": 0.0,
		"url": "https://www.instagram.com/explore/locations/103016994495535",
		"city": "Bucaramanga",
		"admin1": "Santander",
		"admin2": null,
		"country_iso2": "CO"
	},
	{
		"name": "La Wafflería",
		"external_id": "1665637406841755",
		"external_id_source": "facebook_places",
		"lat": 7.11323,
		"lng": -73.10818,
		"address": "Carrera 36 #52-28 , Bucaramanga, Santander",
		"minimum_age": 0.0,
		"url": "https://www.instagram.com/explore/locations/1665637406841755",
		"city": "Bucaramanga",
		"admin1": "Santander",
		"admin2": null,
		"country_iso2": "CO"
	},
	{
		"name": "Mia Nonna",
		"external_id": "781446855299424",
		"external_id_source": "facebook_places",
		"lat": 7.1124277256,
		"lng": -73.1090538264,
		"address": "Cra 35 No. 52-97, Bucaramanga, Colombia",
		"minimum_age": 0.0,
		"url": "https://www.instagram.com/explore/locations/781446855299424",
		"city": "Bucaramanga",
		"admin1": "Santander",
		"admin2": null,
		"country_iso2": "CO"
	},
	{
		"name": "Pasteleria Berna",
		"external_id": "348958752423441",
		"external_id_source": "facebook_places",
		"lat": 7.1142239637,
		"lng": -73.1095201866,
		"address": "Carrera 34, Bucaramanga, Santander",
		"minimum_age": 0.0,
		"url": "https://www.instagram.com/explore/locations/348958752423441",
		"city": "Bucaramanga",
		"admin1": "Santander",
		"admin2": null,
		"country_iso2": "CO"
	},
	{
		"name": "Hotel Torre Mar",
		"external_id": "103000508240246",
		"external_id_source": "facebook_places",
		"lat": 3.8815,
		"lng": -77.0226,
		"address": null,
		"minimum_age": 0.0,
		"url": "https://www.instagram.com/explore/locations/103000508240246",
		"city": "Buenaventura",
		"admin1": "Valle del Cauca",
		"admin2": null,
		"country_iso2": "CO"
	},
	{
		"name": "Lola Melona Restaurante Bar",
		"external_id": "186436724738109",
		"external_id_source": "facebook_places",
		"lat": 3.8840335837,
		"lng": -77.0258380818,
		"address": "Valle del Cauca",
		"minimum_age": 0.0,
		"url": "https://www.instagram.com/explore/locations/186436724738109",
		"city": "Buenaventura",
		"admin1": "Valle del Cauca",
		"admin2": null,
		"country_iso2": "CO"
	},
	{
		"name": "Bendito Rancho Asados al Carbon",
		"external_id": "1625437457763248",
		"external_id_source": "facebook_places",
		"lat": 3.8849781662,
		"lng": -76.1849498749,
		"address": "Tres Esquinas, La Habana, Buga, Valle del Cauca",
		"minimum_age": 0.0,
		"url": "https://www.instagram.com/explore/locations/1625437457763248",
		"city": "Buga",
		"admin1": "Valle del Cauca",
		"admin2": null,
		"country_iso2": "CO"
	},
	{
		"name": "Café Travesía",
		"external_id": "1012133768813047",
		"external_id_source": "facebook_places",
		"lat": 6.4055538,
		"lng": -75.982327,
		"address": "Carrera 4 Nro 4 - 07, Caicedo",
		"minimum_age": 0.0,
		"url": "https://www.instagram.com/explore/locations/1012133768813047",
		"city": "Caicedo",
		"admin1": "Antioquia",
		"admin2": null,
		"country_iso2": "CO"
	},
	{
		"name": "Catavientos  CAFÉ & BAR",
		"external_id": "711909959171991",
		"external_id_source": "facebook_places",
		"lat": 6.405971408,
		"lng": -75.982314982,
		"address": "Crr 4 N 5 10 , Caicedo",
		"minimum_age": 0.0,
		"url": "https://www.instagram.com/explore/locations/711909959171991",
		"city": "Caicedo",
		"admin1": "Antioquia",
		"admin2": null,
		"country_iso2": "CO"
	},
	{
		"name": "El Edén Coffee",
		"external_id": "362862247688560",
		"external_id_source": "facebook_places",
		"lat": 4.39559,
		"lng": -75.4568199,
		"address": "Finca El Recuerdo, Vereda La Judea, Anaime, Tolima, Colombia",
		"minimum_age": 0.0,
		"url": "https://www.instagram.com/explore/locations/362862247688560",
		"city": "Cajamarca",
		"admin1": "Tolima",
		"admin2": null,
		"country_iso2": "CO"
	},
	{
		"name": "Candilejas Discoteca Mondomo Cauca",
		"external_id": "761426107391983",
		"external_id_source": "facebook_places",
		"lat": 2.8896345655,
		"lng": -76.5508154649,
		"address": null,
		"minimum_age": 0.0,
		"url": "https://www.instagram.com/explore/locations/761426107391983",
		"city": "Caldono",
		"admin1": "Cauca",
		"admin2": null,
		"country_iso2": "CO"
	},
	{
		"name": "Absenta Bar",
		"external_id": "1876225685752415",
		"external_id_source": "facebook_places",
		"lat": 3.364508224,
		"lng": -76.5349304797,
		"address": "San Joaquín",
		"minimum_age": 0.0,
		"url": "https://www.instagram.com/explore/locations/1876225685752415",
		"city": "Cali",
		"admin1": "Valle del Cauca",
		"admin2": null,
		"country_iso2": "CO"
	},
	{
		"name": "Café Valparaíso Cali Oeste",
		"external_id": "631719346986905",
		"external_id_source": "facebook_places",
		"lat": 3.45380242,
		"lng": -76.5495571987,
		"address": "calle 7O # 1-35, Santiago de Cali",
		"minimum_age": 0.0,
		"url": "https://www.instagram.com/explore/locations/631719346986905",
		"city": "Cali",
		"admin1": "Valle del Cauca",
		"admin2": null,
		"country_iso2": "CO"
	},
	{
		"name": "Dtoluca Restaurante BAR",
		"external_id": "501704753207757",
		"external_id_source": "facebook_places",
		"lat": 3.3644114,
		"lng": -76.5341238,
		"address": "Cra 105 #15 – 09 Centro Comercial Palmas Mall L-42B, Cali",
		"minimum_age": 0.0,
		"url": "https://www.instagram.com/explore/locations/501704753207757",
		"city": "Cali",
		"admin1": "Valle del Cauca",
		"admin2": null,
		"country_iso2": "CO"
	},
	{
		"name": "EL FARO BAR",
		"external_id": "225061140859285",
		"external_id_source": null,
		"lat": null,
		"lng": null,
		"address": null,
		"minimum_age": null,
		"url": "https://www.instagram.com/explore/locations/225061140859285",
		"city": "Cali",
		"admin1": null,
		"admin2": null,
		"country_iso2": null
	},
	{
		"name": "Garden Lounge",
		"external_id": "323002502472",
		"external_id_source": "facebook_places",
		"lat": 3.364659,
		"lng": -76.5317208,
		"address": "Calle 16 # 103-58 Ciudad Jardín Cali, Colombia, Cali, Colombia",
		"minimum_age": 0.0,
		"url": "https://www.instagram.com/explore/locations/323002502472",
		"city": "Cali",
		"admin1": "Valle del Cauca",
		"admin2": null,
		"country_iso2": "CO"
	},
	{
		"name": "Granada",
		"external_id": "247434546",
		"external_id_source": null,
		"lat": null,
		"lng": null,
		"address": null,
		"minimum_age": null,
		"url": "https://www.instagram.com/explore/locations/247434546",
		"city": "Cali",
		"admin1": null,
		"admin2": null,
		"country_iso2": null
	},
	{
		"name": "La Pérgola Clandestina",
		"external_id": "1607014472853783",
		"external_id_source": "facebook_places",
		"lat": 3.4545356734,
		"lng": -76.5315781375,
		"address": "Carrera 2 # 13-42 Centro, Cali",
		"minimum_age": 0.0,
		"url": "https://www.instagram.com/explore/locations/1607014472853783",
		"city": "Cali",
		"admin1": "Valle del Cauca",
		"admin2": null,
		"country_iso2": "CO"
	},
	{
		"name": "Leños & Carbón",
		"external_id": "113123107830505",
		"external_id_source": "facebook_places",
		"lat": 3.36432,
		"lng": -76.53418,
		"address": "Carrera 105 No. 15-09 Edificio Palmas Mall Local 7",
		"minimum_age": 0.0,
		"url": "https://www.instagram.com/explore/locations/113123107830505",
		"city": "Cali",
		"admin1": "Valle del Cauca",
		"admin2": null,
		"country_iso2": "CO"
	},
	{
		"name": "Mister Wings",
		"external_id": "210695895654541",
		"external_id_source": "facebook_places",
		"lat": 3.364258926,
		"lng": -76.5356326103,
		"address": "Cra 105 # 14-05 Piso 2, Cali",
		"minimum_age": 0.0,
		"url": "https://www.instagram.com/explore/locations/210695895654541",
		"city": "Cali",
		"admin1": "Valle del Cauca",
		"admin2": null,
		"country_iso2": "CO"
	},
	{
		"name": "Nuestro Sueño Cocina Peruana",
		"external_id": "106239441264896",
		"external_id_source": "facebook_places",
		"lat": 3.3644029633,
		"lng": -76.5335162778,
		"address": "Cra 105 # 15b-45 ",
		"minimum_age": 0.0,
		"url": "https://www.instagram.com/explore/locations/106239441264896",
		"city": "Cali",
		"admin1": "Valle del Cauca",
		"admin2": null,
		"country_iso2": "CO"
	},
	{
		"name": "Pampa Malbec",
		"external_id": "502098499863423",
		"external_id_source": "facebook_places",
		"lat": 3.364313558,
		"lng": -76.533520424,
		"address": "Av San Joaquin Cra 105 15 b  45, Santiago de Cali",
		"minimum_age": 0.0,
		"url": "https://www.instagram.com/explore/locations/502098499863423",
		"city": "Cali",
		"admin1": "Valle del Cauca",
		"admin2": null,
		"country_iso2": "CO"
	},
	{
		"name": "Parque del perro",
		"external_id": "3647345",
		"external_id_source": null,
		"lat": null,
		"lng": null,
		"address": null,
		"minimum_age": null,
		"url": "https://www.instagram.com/explore/locations/3647345",
		"city": "Cali",
		"admin1": null,
		"admin2": null,
		"country_iso2": null
	},
	{
		"name": "Primos",
		"external_id": "2055719901362922",
		"external_id_source": "facebook_places",
		"lat": 3.3643017673,
		"lng": -76.5343558788,
		"address": "Av San Joaquin #15-09, Cali, Ciudad Jardin, Cali",
		"minimum_age": 0.0,
		"url": "https://www.instagram.com/explore/locations/2055719901362922",
		"city": "Cali",
		"admin1": "Valle del Cauca",
		"admin2": null,
		"country_iso2": "CO"
	},
	{
		"name": "Restaurante Platillos Voladores",
		"external_id": "2311521982394679",
		"external_id_source": "facebook_places",
		"lat": 3.3644114,
		"lng": -76.5341238,
		"address": "Cra. 105 #15-09",
		"minimum_age": 0.0,
		"url": "https://www.instagram.com/explore/locations/2311521982394679",
		"city": "Cali",
		"admin1": "Valle del Cauca",
		"admin2": null,
		"country_iso2": "CO"
	},
	{
		"name": "Rooftop Don Juan De La Torre Piso 42",
		"external_id": "1942586449143556",
		"external_id_source": "facebook_places",
		"lat": 3.4584125259,
		"lng": -76.528452335,
		"address": "Piso 42 Torre De Cali",
		"minimum_age": 0.0,
		"url": "https://www.instagram.com/explore/locations/1942586449143556",
		"city": "Cali",
		"admin1": "Valle del Cauca",
		"admin2": null,
		"country_iso2": "CO"
	},
	{
		"name": "Route 66 Bar Cali",
		"external_id": "217493201",
		"external_id_source": null,
		"lat": null,
		"lng": null,
		"address": null,
		"minimum_age": null,
		"url": "https://www.instagram.com/explore/locations/217493201",
		"city": "Cali",
		"admin1": null,
		"admin2": null,
		"country_iso2": null
	},
	{
		"name": "Sushi Market",
		"external_id": "265116500598355",
		"external_id_source": "facebook_places",
		"lat": 3.3644693243,
		"lng": -76.533516166,
		"address": "Ciudad Jardin, Valle Del Cauca, Colombia",
		"minimum_age": 0.0,
		"url": "https://www.instagram.com/explore/locations/265116500598355",
		"city": "Cali",
		"admin1": "Valle del Cauca",
		"admin2": null,
		"country_iso2": "CO"
	},
	{
		"name": "Tin Tin Deo",
		"external_id": "356823988",
		"external_id_source": null,
		"lat": null,
		"lng": null,
		"address": null,
		"minimum_age": null,
		"url": "https://www.instagram.com/explore/locations/356823988",
		"city": "Cali",
		"admin1": null,
		"admin2": null,
		"country_iso2": null
	},
	{
		"name": "Tortelli",
		"external_id": "529771540884818",
		"external_id_source": "facebook_places",
		"lat": 3.3645917796,
		"lng": -76.5341607818,
		"address": "Carrera 105 15, Santiago de cali",
		"minimum_age": 0.0,
		"url": "https://www.instagram.com/explore/locations/529771540884818",
		"city": "Cali",
		"admin1": "Valle del Cauca",
		"admin2": null,
		"country_iso2": "CO"
	},
	{
		"name": "Blue Palace Hotel",
		"external_id": "2014197611997810",
		"external_id_source": "facebook_places",
		"lat": 3.8818165879,
		"lng": -76.5311818285,
		"address": "lago calima vereda palermo",
		"minimum_age": 0.0,
		"url": "https://www.instagram.com/explore/locations/2014197611997810",
		"city": "Calimita",
		"admin1": "Valle del Cauca",
		"admin2": null,
		"country_iso2": "CO"
	},
	{
		"name": "Hotel La Cuspide",
		"external_id": "559544064157918",
		"external_id_source": "facebook_places",
		"lat": 3.8979053955,
		"lng": -76.5280464663,
		"address": "Llanitos, Calima, Valle del Cauca",
		"minimum_age": 0.0,
		"url": "https://www.instagram.com/explore/locations/559544064157918",
		"city": "Calimita",
		"admin1": "Valle del Cauca",
		"admin2": null,
		"country_iso2": "CO"
	},
	{
		"name": "Alquímico",
		"external_id": "1028285758",
		"external_id_source": null,
		"lat": null,
		"lng": null,
		"address": null,
		"minimum_age": null,
		"url": "https://www.instagram.com/explore/locations/1028285758",
		"city": "Cartagena",
		"admin1": null,
		"admin2": null,
		"country_iso2": null
	},
	{
		"name": "Café del Mar Cartagena",
		"external_id": "281115158703922",
		"external_id_source": "facebook_places",
		"lat": 10.424492019,
		"lng": -75.5540759333,
		"address": "C.Baluarte Santo Domingo, Cartagena de Indias",
		"minimum_age": 0.0,
		"url": "https://www.instagram.com/explore/locations/281115158703922",
		"city": "Cartagena",
		"admin1": "Bolivar",
		"admin2": null,
		"country_iso2": "CO"
	},
	{
		"name": "Café del Mar Cartagena",
		"external_id": "237547515",
		"external_id_source": null,
		"lat": null,
		"lng": null,
		"address": null,
		"minimum_age": null,
		"url": "https://www.instagram.com/explore/locations/237547515",
		"city": "Cartagena",
		"admin1": null,
		"admin2": null,
		"country_iso2": null
	},
	{
		"name": "Callejon Angosto, Getsemani, Cartagena",
		"external_id": "317938495405347",
		"external_id_source": null,
		"lat": null,
		"lng": null,
		"address": null,
		"minimum_age": null,
		"url": "https://www.instagram.com/explore/locations/317938495405347",
		"city": "Cartagena",
		"admin1": null,
		"admin2": null,
		"country_iso2": null
	},
	{
		"name": "Cartagena De Indias, Calle Del Arsenal",
		"external_id": "740029505",
		"external_id_source": null,
		"lat": null,
		"lng": null,
		"address": null,
		"minimum_age": null,
		"url": "https://www.instagram.com/explore/locations/740029505",
		"city": "Cartagena",
		"admin1": null,
		"admin2": null,
		"country_iso2": null
	},
	{
		"name": "Hotel Estelar Playa Manzanillo",
		"external_id": "106927646084703",
		"external_id_source": "facebook_places",
		"lat": 10.5245029309,
		"lng": -75.4943573644,
		"address": "Playa Manzanillo, Cartagena, Colombia",
		"minimum_age": 0.0,
		"url": "https://www.instagram.com/explore/locations/106927646084703",
		"city": "Cartagena",
		"admin1": "Bolivar",
		"admin2": null,
		"country_iso2": "CO"
	},
	{
		"name": "Hotel Las Américas - Cartagena",
		"external_id": "316745376427",
		"external_id_source": "facebook_places",
		"lat": 10.4595523409,
		"lng": -75.5072344152,
		"address": "Anillo Vial, Sector Cielo Mar, Cartagena, Colombia",
		"minimum_age": 0.0,
		"url": "https://www.instagram.com/explore/locations/316745376427",
		"city": "Cartagena",
		"admin1": "Bolivar",
		"admin2": null,
		"country_iso2": "CO"
	},
	{
		"name": "Hotel Quadrifolio",
		"external_id": "303815306426703",
		"external_id_source": "facebook_places",
		"lat": 10.4262853619,
		"lng": -75.5505435467,
		"address": "Carrera 5 36 - 118, Cartagena, Colombia",
		"minimum_age": 0.0,
		"url": "https://www.instagram.com/explore/locations/303815306426703",
		"city": "Cartagena",
		"admin1": "Bolivar",
		"admin2": null,
		"country_iso2": "CO"
	},
	{
		"name": "Hotel Santa Clara",
		"external_id": "172987242747367",
		"external_id_source": "facebook_places",
		"lat": 10.4285102297,
		"lng": -75.5478976516,
		"address": "Cartagena, Colombia",
		"minimum_age": 0.0,
		"url": "https://www.instagram.com/explore/locations/172987242747367",
		"city": "Cartagena",
		"admin1": "Bolivar",
		"admin2": null,
		"country_iso2": "CO"
	},
	{
		"name": "Isla Barú",
		"external_id": "345446995466214",
		"external_id_source": "facebook_places",
		"lat": 10.4013399259,
		"lng": -75.5571839486,
		"address": "Isla Barú",
		"minimum_age": 0.0,
		"url": "https://www.instagram.com/explore/locations/345446995466214",
		"city": "Cartagena",
		"admin1": "Bolivar",
		"admin2": null,
		"country_iso2": "CO"
	},
	{
		"name": "La Muralla",
		"external_id": "430711981079133",
		"external_id_source": "facebook_places",
		"lat": 10.4252616,
		"lng": -75.5480487,
		"address": "Calle 36 7, Cartagena, Colombia",
		"minimum_age": 0.0,
		"url": "https://www.instagram.com/explore/locations/430711981079133",
		"city": "Cartagena",
		"admin1": "Bolivar",
		"admin2": null,
		"country_iso2": "CO"
	},
	{
		"name": "La Serrezuela",
		"external_id": "176342512816029",
		"external_id_source": "facebook_places",
		"lat": 10.4281234,
		"lng": -75.545558,
		"address": "Cra 11 # 39-21 ",
		"minimum_age": 0.0,
		"url": "https://www.instagram.com/explore/locations/176342512816029",
		"city": "Cartagena",
		"admin1": "Bolivar",
		"admin2": null,
		"country_iso2": "CO"
	},
	{
		"name": "La Torre Del Reloj",
		"external_id": "413237358717634",
		"external_id_source": "facebook_places",
		"lat": 10.4230112103,
		"lng": -75.5490851224,
		"address": "Centro, Carrera 7 # 32-77, Portal de los Dulces, Cartagena, Colombia",
		"minimum_age": 0.0,
		"url": "https://www.instagram.com/explore/locations/413237358717634",
		"city": "Cartagena",
		"admin1": "Bolivar",
		"admin2": null,
		"country_iso2": "CO"
	},
	{
		"name": "Restaurante Candé",
		"external_id": "208551992530655",
		"external_id_source": "facebook_places",
		"lat": 10.4279336095,
		"lng": -75.5460742037,
		"address": " Centro Histórico, barrio San Diego, Cra 10 No 39-02, Calle de la Serrezuela, Cartagena, Colombia",
		"minimum_age": 0.0,
		"url": "https://www.instagram.com/explore/locations/208551992530655",
		"city": "Cartagena",
		"admin1": "Bolivar",
		"admin2": null,
		"country_iso2": "CO"
	},
	{
		"name": "San Valentín Restaurante - Bar",
		"external_id": "1443408729204948",
		"external_id_source": "facebook_places",
		"lat": 10.4244008462,
		"lng": -75.5493596898,
		"address": "Calle Vicente García # 6 - 33",
		"minimum_age": 0.0,
		"url": "https://www.instagram.com/explore/locations/1443408729204948",
		"city": "Cartagena",
		"admin1": "Bolivar",
		"admin2": null,
		"country_iso2": "CO"
	},
	{
		"name": "Tierra bomba",
		"external_id": "110558320853652",
		"external_id_source": "facebook_places",
		"lat": 10.38183,
		"lng": -75.47143,
		"address": "Tierra bomba, Cartagena, Colombia",
		"minimum_age": 0.0,
		"url": "https://www.instagram.com/explore/locations/110558320853652",
		"city": "Cartagena",
		"admin1": "Bolivar",
		"admin2": null,
		"country_iso2": "CO"
	},
	{
		"name": "TuCandela Bar",
		"external_id": "1016798394",
		"external_id_source": null,
		"lat": null,
		"lng": null,
		"address": null,
		"minimum_age": null,
		"url": "https://www.instagram.com/explore/locations/1016798394",
		"city": "Cartagena",
		"admin1": null,
		"admin2": null,
		"country_iso2": null
	},
	{
		"name": "El Curubito - Restaurante",
		"external_id": "100719698620189",
		"external_id_source": "facebook_places",
		"lat": 3.9331402613,
		"lng": -73.4763480835,
		"address": "Villa de Leiva, Boyaca, Colombia",
		"minimum_age": 0.0,
		"url": "https://www.instagram.com/explore/locations/100719698620189",
		"city": "Castilla La Nueva",
		"admin1": "Meta",
		"admin2": null,
		"country_iso2": "CO"
	},
	{
		"name": "Enrumbadoscolombia",
		"external_id": "348082455601644",
		"external_id_source": "facebook_places",
		"lat": 7.8718321793,
		"lng": -75.0292954489,
		"address": "Calle 15 esquina av pajonal, Caucasia",
		"minimum_age": 0.0,
		"url": "https://www.instagram.com/explore/locations/348082455601644",
		"city": "Caucasia",
		"admin1": "Antioquia",
		"admin2": null,
		"country_iso2": "CO"
	},
	{
		"name": "Hotel Colonial Chinácota",
		"external_id": "286937018034854",
		"external_id_source": "facebook_places",
		"lat": 7.5948953353,
		"lng": -72.600098656,
		"address": "Parque Residencial Bonanza, Chinácota",
		"minimum_age": 0.0,
		"url": "https://www.instagram.com/explore/locations/286937018034854",
		"city": "Chinacota",
		"admin1": "Norte de Santander",
		"admin2": null,
		"country_iso2": "CO"
	},
	{
		"name": "Quinta K",
		"external_id": "102239815018112",
		"external_id_source": "facebook_places",
		"lat": 7.5983124,
		"lng": -72.602585,
		"address": "Chinacota, Chinácota",
		"minimum_age": 0.0,
		"url": "https://www.instagram.com/explore/locations/102239815018112",
		"city": "Chinacota",
		"admin1": "Norte de Santander",
		"admin2": null,
		"country_iso2": "CO"
	},
	{
		"name": "Rancho Botero",
		"external_id": "2137129283214655",
		"external_id_source": "facebook_places",
		"lat": 7.5590213305,
		"lng": -72.5750632893,
		"address": null,
		"minimum_age": 0.0,
		"url": "https://www.instagram.com/explore/locations/2137129283214655",
		"city": "Chinacota",
		"admin1": "Norte de Santander",
		"admin2": null,
		"country_iso2": "CO"
	},
	{
		"name": "RESTAURANTE CAMPESTRE \"LAVACA\"",
		"external_id": "239665326057023",
		"external_id_source": "facebook_places",
		"lat": 5.16749,
		"lng": -73.36787,
		"address": "BOYACA, Chinavita",
		"minimum_age": 0.0,
		"url": "https://www.instagram.com/explore/locations/239665326057023",
		"city": "Chinavita",
		"admin1": "Boyaca",
		"admin2": null,
		"country_iso2": "CO"
	},
	{
		"name": "La Herradura Hotel-Restaurante-Bar",
		"external_id": "102954178956221",
		"external_id_source": "facebook_places",
		"lat": 4.4408503263,
		"lng": -74.0140538637,
		"address": "La Herradura Hotel Restaurante Bar, Chipaque",
		"minimum_age": 0.0,
		"url": "https://www.instagram.com/explore/locations/102954178956221",
		"city": "Chipaque",
		"admin1": "Cundinamarca",
		"admin2": null,
		"country_iso2": "CO"
	},
	{
		"name": "Huesitos Restaurante",
		"external_id": "104838935340390",
		"external_id_source": "facebook_places",
		"lat": 5.1227464465,
		"lng": -73.695602417,
		"address": "Km 4 vía Chocontá - Bogotá, vereda Saucio Chocontá, Chocontá",
		"minimum_age": 0.0,
		"url": "https://www.instagram.com/explore/locations/104838935340390",
		"city": "Choconta",
		"admin1": "Cundinamarca",
		"admin2": null,
		"country_iso2": "CO"
	},
	{
		"name": "Tu glamping",
		"external_id": "1671102633174075",
		"external_id_source": "facebook_places",
		"lat": 5.1148815155,
		"lng": -73.6839294434,
		"address": "Chocontá",
		"minimum_age": 0.0,
		"url": "https://www.instagram.com/explore/locations/1671102633174075",
		"city": "Choconta",
		"admin1": "Cundinamarca",
		"admin2": null,
		"country_iso2": "CO"
	},
	{
		"name": "ElCielo Hotel",
		"external_id": "107145277992438",
		"external_id_source": "facebook_places",
		"lat": 6.0015901469,
		"lng": -76.2695668638,
		"address": "Calle 7D # 43C-36, Medellín, Antioquia",
		"minimum_age": 0.0,
		"url": "https://www.instagram.com/explore/locations/107145277992438",
		"city": "Ciudad Bolivar",
		"admin1": "Antioquia",
		"admin2": null,
		"country_iso2": "CO"
	},
	{
		"name": "Finca Hotel Lagos del Citara",
		"external_id": "299861290137531",
		"external_id_source": "facebook_places",
		"lat": 5.850238099,
		"lng": -76.019547107,
		"address": "Finca Hotel Lagos del Citará, Vía Corregimiento , San Bernardo de los  Farallones , Ciudad Bolivar, Ciudad Bolívar, Antioquia",
		"minimum_age": 0.0,
		"url": "https://www.instagram.com/explore/locations/299861290137531",
		"city": "Ciudad Bolivar",
		"admin1": "Antioquia",
		"admin2": null,
		"country_iso2": "CO"
	},
	{
		"name": "AlohaCheladas Axm",
		"external_id": "107518108409541",
		"external_id_source": "facebook_places",
		"lat": 3.4448171393,
		"lng": -74.6605,
		"address": "Mall La Avenida Cra 14 # 27 N 80 Local B4, Armenia (Antioquia)",
		"minimum_age": 0.0,
		"url": "https://www.instagram.com/explore/locations/107518108409541",
		"city": "Colombia",
		"admin1": "Huila",
		"admin2": null,
		"country_iso2": "CO"
	},
	{
		"name": "Nova 100 Inversiones",
		"external_id": "1099326000137653",
		"external_id_source": "facebook_places",
		"lat": 3.3901261,
		"lng": -74.9319632,
		"address": "Calle 8 con 8, Villa De Leiva, Boyaca, Colombia",
		"minimum_age": 0.0,
		"url": "https://www.instagram.com/explore/locations/1099326000137653",
		"city": "Colombia",
		"admin1": "Huila",
		"admin2": null,
		"country_iso2": "CO"
	},
	{
		"name": "Hotel Brisas Del Vergel",
		"external_id": "808846622598689",
		"external_id_source": "facebook_places",
		"lat": 3.79657,
		"lng": -73.85405,
		"address": "Vereda del vergel, San Luis De Cubarral, Meta, Colombia",
		"minimum_age": 0.0,
		"url": "https://www.instagram.com/explore/locations/808846622598689",
		"city": "Cubarral",
		"admin1": "Meta",
		"admin2": null,
		"country_iso2": "CO"
	},
	{
		"name": "Parrilla Y Son",
		"external_id": "500487707117087",
		"external_id_source": "facebook_places",
		"lat": 7.941645,
		"lng": -72.5236269,
		"address": "Barrio Aeropuerto",
		"minimum_age": 0.0,
		"url": "https://www.instagram.com/explore/locations/500487707117087",
		"city": "Cucuta",
		"admin1": "Norte de Santander",
		"admin2": null,
		"country_iso2": "CO"
	},
	{
		"name": "D' La Cumbre Coffee House",
		"external_id": "106098687980639",
		"external_id_source": "facebook_places",
		"lat": 4.27129,
		"lng": -73.48729,
		"address": "cra 21 N 11 26 centro enseguida Banco agrario, Cumaral",
		"minimum_age": 0.0,
		"url": "https://www.instagram.com/explore/locations/106098687980639",
		"city": "Cumaral",
		"admin1": "Meta",
		"admin2": null,
		"country_iso2": "CO"
	},
	{
		"name": "HOTEL CasaBlanca",
		"external_id": "101952178700482",
		"external_id_source": "facebook_places",
		"lat": 4.27129,
		"lng": -73.48729,
		"address": "Cumaral, Colombia, Cumaral",
		"minimum_age": 0.0,
		"url": "https://www.instagram.com/explore/locations/101952178700482",
		"city": "Cumaral",
		"admin1": "Meta",
		"admin2": null,
		"country_iso2": "CO"
	},
	{
		"name": "Mar de Verdes Glamping",
		"external_id": "101454081937669",
		"external_id_source": "facebook_places",
		"lat": 4.3083255048,
		"lng": -73.5208339681,
		"address": "Caney Medio, Vereda Santa Ana, 4 Km desde el puente Río Guacavía, Restrepo, Meta",
		"minimum_age": 0.0,
		"url": "https://www.instagram.com/explore/locations/101454081937669",
		"city": "Cumaral",
		"admin1": "Meta",
		"admin2": null,
		"country_iso2": "CO"
	},
	{
		"name": "Dos Cosechas Coffee",
		"external_id": "275349569560697",
		"external_id_source": "facebook_places",
		"lat": 4.8624907087,
		"lng": -75.6847500801,
		"address": "Vereda Santana Alta, Finca La Trinidad , Dosquebradas",
		"minimum_age": 0.0,
		"url": "https://www.instagram.com/explore/locations/275349569560697",
		"city": "Dos Quebradas",
		"admin1": "Risaralda",
		"admin2": null,
		"country_iso2": "CO"
	},
	{
		"name": "Chef Del Mar",
		"external_id": "455604905005916",
		"external_id_source": "facebook_places",
		"lat": 6.57759089,
		"lng": -73.4767663479,
		"address": "carrera 13 # 11-48 Soccorro Santander Colombia, Socorro, Santander",
		"minimum_age": 0.0,
		"url": "https://www.instagram.com/explore/locations/455604905005916",
		"city": "El Carmen",
		"admin1": "Santander",
		"admin2": null,
		"country_iso2": "CO"
	},
	{
		"name": "La Concha De La Lora",
		"external_id": "730083627015363",
		"external_id_source": "facebook_places",
		"lat": 9.71238,
		"lng": -75.11742,
		"address": null,
		"minimum_age": 0.0,
		"url": "https://www.instagram.com/explore/locations/730083627015363",
		"city": "El Carmen de Bolivar",
		"admin1": "Bolivar",
		"admin2": null,
		"country_iso2": "CO"
	},
	{
		"name": "El Picnic",
		"external_id": "107557331769279",
		"external_id_source": "facebook_places",
		"lat": 7.4723874365,
		"lng": -73.2039489746,
		"address": "Calle 13 #6-64, El Playón, Santander, Colombia",
		"minimum_age": 0.0,
		"url": "https://www.instagram.com/explore/locations/107557331769279",
		"city": "El Playon",
		"admin1": "Santander",
		"admin2": null,
		"country_iso2": "CO"
	},
	{
		"name": "Hotel Punta Diamante",
		"external_id": "1575061772775865",
		"external_id_source": "facebook_places",
		"lat": 7.0229749983,
		"lng": -73.0824214834,
		"address": "km 7 via piedecuesta ruitoque condominio, Loma Mesa De Ruitoque, Santander, Colombia",
		"minimum_age": 0.0,
		"url": "https://www.instagram.com/explore/locations/1575061772775865",
		"city": "Floridablanca",
		"admin1": "Santander",
		"admin2": null,
		"country_iso2": "CO"
	},
	{
		"name": "Restaurante México Mío",
		"external_id": "282973568974757",
		"external_id_source": "facebook_places",
		"lat": 7.028666,
		"lng": -73.069111,
		"address": "Km. 7 Autopista a Piedecuesta, La Parcela, Santander, Colombia",
		"minimum_age": 0.0,
		"url": "https://www.instagram.com/explore/locations/282973568974757",
		"city": "Floridablanca",
		"admin1": "Santander",
		"admin2": null,
		"country_iso2": "CO"
	},
	{
		"name": "Gabanas Bar VIP",
		"external_id": "1682611208709990",
		"external_id_source": "facebook_places",
		"lat": 4.461427,
		"lng": -73.677062,
		"address": "barrio los fundadores, Guamal, Meta",
		"minimum_age": 0.0,
		"url": "https://www.instagram.com/explore/locations/1682611208709990",
		"city": "Fomeque",
		"admin1": "Cundinamarca",
		"admin2": null,
		"country_iso2": "CO"
	},
	{
		"name": "CIELO AZUL",
		"external_id": "190751955004843",
		"external_id_source": "facebook_places",
		"lat": 5.08995,
		"lng": -73.23399,
		"address": "Finca San Antonio, Miraflores, Boyaca",
		"minimum_age": 0.0,
		"url": "https://www.instagram.com/explore/locations/190751955004843",
		"city": "Garagoa",
		"admin1": "Boyaca",
		"admin2": null,
		"country_iso2": "CO"
	},
	{
		"name": "El Balcón De Garzon",
		"external_id": "105678344305497",
		"external_id_source": "facebook_places",
		"lat": 2.1389729655,
		"lng": -75.633126984,
		"address": "vereda San Isidro",
		"minimum_age": 0.0,
		"url": "https://www.instagram.com/explore/locations/105678344305497",
		"city": "Garzon",
		"admin1": "Huila",
		"admin2": null,
		"country_iso2": "CO"
	},
	{
		"name": "Hotel Parque La Casona",
		"external_id": "101608018453330",
		"external_id_source": "facebook_places",
		"lat": 2.1742566,
		"lng": -75.65487,
		"address": "km 2 via la jagua, Garzón, Huila, Colombia",
		"minimum_age": 0.0,
		"url": "https://www.instagram.com/explore/locations/101608018453330",
		"city": "Garzon",
		"admin1": "Huila",
		"admin2": null,
		"country_iso2": "CO"
	},
	{
		"name": "La Cacica Gigante",
		"external_id": "110115993844872",
		"external_id_source": "facebook_places",
		"lat": 2.4675306187,
		"lng": -75.5428325598,
		"address": "A 10 KM DE GIGANTE SOBRE VÍA NACIONAL EN  DIRECCIÓN A NEIVA  ",
		"minimum_age": 0.0,
		"url": "https://www.instagram.com/explore/locations/110115993844872",
		"city": "Gigante",
		"admin1": "Huila",
		"admin2": "Gigante",
		"country_iso2": "CO"
	},
	{
		"name": "GHL Hotel Club El Puente",
		"external_id": "216558225045725",
		"external_id_source": "facebook_places",
		"lat": 4.2935630542,
		"lng": -74.7850783776,
		"address": "Kilómetro 2 vía girardot - melgar, Ricaurte (Cundinamarca)",
		"minimum_age": 0.0,
		"url": "https://www.instagram.com/explore/locations/216558225045725",
		"city": "Girardot City",
		"admin1": "Cundinamarca",
		"admin2": "Girardot",
		"country_iso2": "CO"
	},
	{
		"name": "Keops Girardot",
		"external_id": "270410949720667",
		"external_id_source": "facebook_places",
		"lat": 4.3215408667,
		"lng": -74.8103219932,
		"address": "Cl. 40, Girardot, Cundinamarca, Girardot",
		"minimum_age": 0.0,
		"url": "https://www.instagram.com/explore/locations/270410949720667",
		"city": "Girardot City",
		"admin1": "Cundinamarca",
		"admin2": "Girardot",
		"country_iso2": "CO"
	},
	{
		"name": "Hotel Terrazas Guadalupe",
		"external_id": "541775972850955",
		"external_id_source": "facebook_places",
		"lat": 6.2152535616,
		"lng": -73.4033402087,
		"address": null,
		"minimum_age": 0.0,
		"url": "https://www.instagram.com/explore/locations/541775972850955",
		"city": "Guadalupe",
		"admin1": "Santander",
		"admin2": null,
		"country_iso2": "CO"
	},
	{
		"name": "Manhattan Sa",
		"external_id": "709724466109221",
		"external_id_source": "facebook_places",
		"lat": 6.8110663481,
		"lng": -75.2415306642,
		"address": null,
		"minimum_age": 0.0,
		"url": "https://www.instagram.com/explore/locations/709724466109221",
		"city": "Guadalupe",
		"admin1": "Antioquia",
		"admin2": null,
		"country_iso2": "CO"
	},
	{
		"name": "Toro Loco Restaurante",
		"external_id": "107112661210406",
		"external_id_source": "facebook_places",
		"lat": 3.8814122,
		"lng": -73.7701268,
		"address": "Km2 vía a castilla la nueva",
		"minimum_age": 0.0,
		"url": "https://www.instagram.com/explore/locations/107112661210406",
		"city": "Guamal",
		"admin1": "Meta",
		"admin2": null,
		"country_iso2": "CO"
	},
	{
		"name": "Toro Loco Restaurante",
		"external_id": "101840545004749",
		"external_id_source": "facebook_places",
		"lat": 3.8681205838,
		"lng": -73.7520548701,
		"address": "Toro loco restaurante, Km 2 vía Guamal - Castilla , Guamal",
		"minimum_age": 0.0,
		"url": "https://www.instagram.com/explore/locations/101840545004749",
		"city": "Guamal",
		"admin1": "Meta",
		"admin2": null,
		"country_iso2": "CO"
	},
	{
		"name": "Restaurante Doña Rosa",
		"external_id": "383981008751730",
		"external_id_source": "facebook_places",
		"lat": 4.5167278,
		"lng": -74.78986175,
		"address": "Barrio Centro",
		"minimum_age": 0.0,
		"url": "https://www.instagram.com/explore/locations/383981008751730",
		"city": "Guataqui",
		"admin1": "Cundinamarca",
		"admin2": null,
		"country_iso2": "CO"
	},
	{
		"name": "Patacon plaza",
		"external_id": "103869725779476",
		"external_id_source": "facebook_places",
		"lat": 4.1349173749,
		"lng": -73.9403241279,
		"address": "centro comercial Rosa Blanca local 233 plazoleta de comidas , Villavicencio",
		"minimum_age": 0.0,
		"url": "https://www.instagram.com/explore/locations/103869725779476",
		"city": "Guayabetal",
		"admin1": "Cundinamarca",
		"admin2": null,
		"country_iso2": "CO"
	},
	{
		"name": "Don pedro Tipico av 60",
		"external_id": "1930512387273809",
		"external_id_source": "facebook_places",
		"lat": 4.44272269,
		"lng": -75.204875377,
		"address": "Av 60",
		"minimum_age": 0.0,
		"url": "https://www.instagram.com/explore/locations/1930512387273809",
		"city": "Ibague",
		"admin1": "Tolima",
		"admin2": null,
		"country_iso2": "CO"
	},
	{
		"name": "Game Food Ibagué",
		"external_id": "104343772046010",
		"external_id_source": "facebook_places",
		"lat": 4.4456391634,
		"lng": -75.2049672604,
		"address": "C.C. La Estación, 3er piso terraza, Local A321 , Ibagué",
		"minimum_age": 0.0,
		"url": "https://www.instagram.com/explore/locations/104343772046010",
		"city": "Ibague",
		"admin1": "Tolima",
		"admin2": null,
		"country_iso2": "CO"
	},
	{
		"name": "Hotel Estelar Altamira",
		"external_id": "170871189632624",
		"external_id_source": "facebook_places",
		"lat": 4.4286673976,
		"lng": -75.2087837242,
		"address": "Carrera 1 No. 45 – 50, Ibagué, Tolima",
		"minimum_age": 0.0,
		"url": "https://www.instagram.com/explore/locations/170871189632624",
		"city": "Ibague",
		"admin1": "Tolima",
		"admin2": null,
		"country_iso2": "CO"
	},
	{
		"name": "JoseMiro Bulevar Gastronómico",
		"external_id": "107256608517082",
		"external_id_source": "facebook_places",
		"lat": 4.4276812092,
		"lng": -75.2000123265,
		"address": "Avenida Mirolindo #59-64, Ibagué",
		"minimum_age": 0.0,
		"url": "https://www.instagram.com/explore/locations/107256608517082",
		"city": "Ibague",
		"admin1": "Tolima",
		"admin2": null,
		"country_iso2": "CO"
	},
	{
		"name": "London House Pub & Grill",
		"external_id": "230324407172497",
		"external_id_source": "facebook_places",
		"lat": 4.4365653,
		"lng": -75.2088217,
		"address": "Carrera 6ª #46-51, Ibagué",
		"minimum_age": 0.0,
		"url": "https://www.instagram.com/explore/locations/230324407172497",
		"city": "Ibague",
		"admin1": "Tolima",
		"admin2": null,
		"country_iso2": "CO"
	},
	{
		"name": "Oasis Bar",
		"external_id": "143077615843934",
		"external_id_source": "facebook_places",
		"lat": 4.4351955175,
		"lng": -75.211456927,
		"address": null,
		"minimum_age": 0.0,
		"url": "https://www.instagram.com/explore/locations/143077615843934",
		"city": "Ibague",
		"admin1": "Tolima",
		"admin2": null,
		"country_iso2": "CO"
	},
	{
		"name": "Origen Restaurante",
		"external_id": "174929596632429",
		"external_id_source": "facebook_places",
		"lat": 4.4358549185,
		"lng": -75.2092476654,
		"address": "carrera 6 # 44-84, Ibagué",
		"minimum_age": 0.0,
		"url": "https://www.instagram.com/explore/locations/174929596632429",
		"city": "Ibague",
		"admin1": "Tolima",
		"admin2": null,
		"country_iso2": "CO"
	},
	{
		"name": "Paz Restaurante",
		"external_id": "115203434515001",
		"external_id_source": "facebook_places",
		"lat": 4.4478506731,
		"lng": -75.2009598885,
		"address": "Calle 60 # 10 -115 Edificio Icono 60, Ibagué",
		"minimum_age": 0.0,
		"url": "https://www.instagram.com/explore/locations/115203434515001",
		"city": "Ibague",
		"admin1": "Tolima",
		"admin2": null,
		"country_iso2": "CO"
	},
	{
		"name": "Plaza Garibaldi",
		"external_id": "202981333094839",
		"external_id_source": "facebook_places",
		"lat": 4.4351969387,
		"lng": -75.2116018197,
		"address": "057, Ibagué, Tolima",
		"minimum_age": 0.0,
		"url": "https://www.instagram.com/explore/locations/202981333094839",
		"city": "Ibague",
		"admin1": "Tolima",
		"admin2": null,
		"country_iso2": "CO"
	},
	{
		"name": "Restaurante La Carnicería Parrilla",
		"external_id": "108133788152392",
		"external_id_source": "facebook_places",
		"lat": 4.4390340102,
		"lng": -75.2057558298,
		"address": "Calle 53 # 7b - 55 Rincon de Piedra Pintada",
		"minimum_age": 0.0,
		"url": "https://www.instagram.com/explore/locations/108133788152392",
		"city": "Ibague",
		"admin1": "Tolima",
		"admin2": null,
		"country_iso2": "CO"
	},
	{
		"name": "Sakana Sushi Fusión",
		"external_id": "389624741401307",
		"external_id_source": "facebook_places",
		"lat": 4.4383868624,
		"lng": -75.2021241188,
		"address": " Manzana A casa 11 prados del norte , Ibagué",
		"minimum_age": 0.0,
		"url": "https://www.instagram.com/explore/locations/389624741401307",
		"city": "Ibague",
		"admin1": "Tolima",
		"admin2": null,
		"country_iso2": "CO"
	},
	{
		"name": "beer coffee company Cali",
		"external_id": "2207425592665760",
		"external_id_source": "facebook_places",
		"lat": 2.0210651188,
		"lng": -76.2890625,
		"address": "Santiago de Cali",
		"minimum_age": 0.0,
		"url": "https://www.instagram.com/explore/locations/2207425592665760",
		"city": "Isnos",
		"admin1": "Huila",
		"admin2": null,
		"country_iso2": "CO"
	},
	{
		"name": "787 Club Medellín",
		"external_id": "104743108622932",
		"external_id_source": "facebook_places",
		"lat": 6.2077899388,
		"lng": -75.5680078269,
		"address": "Cra 38 # 08 - 08, Medellín, Antioquia",
		"minimum_age": 0.0,
		"url": "https://www.instagram.com/explore/locations/104743108622932",
		"city": "Itagui",
		"admin1": "Antioquia",
		"admin2": null,
		"country_iso2": "CO"
	},
	{
		"name": "Blue Medellin",
		"external_id": "145792858776714",
		"external_id_source": "facebook_places",
		"lat": 6.209893,
		"lng": -75.5681669,
		"address": "Cl.10 40, 20  , Medellín",
		"minimum_age": 0.0,
		"url": "https://www.instagram.com/explore/locations/145792858776714",
		"city": "Itagui",
		"admin1": "Antioquia",
		"admin2": null,
		"country_iso2": "CO"
	},
	{
		"name": "Café Noir",
		"external_id": "361385375089354",
		"external_id_source": "facebook_places",
		"lat": 6.2075796562,
		"lng": -75.5680973845,
		"address": "Calle 8 #37a41",
		"minimum_age": 0.0,
		"url": "https://www.instagram.com/explore/locations/361385375089354",
		"city": "Itagui",
		"admin1": "Antioquia",
		"admin2": null,
		"country_iso2": "CO"
	},
	{
		"name": "City Hall Colombia",
		"external_id": "1222697797834578",
		"external_id_source": "facebook_places",
		"lat": 6.20455621,
		"lng": -75.5972921203,
		"address": "Calle 2Sur #65-535, Medellín, Antioquia",
		"minimum_age": 0.0,
		"url": "https://www.instagram.com/explore/locations/1222697797834578",
		"city": "Itagui",
		"admin1": "Antioquia",
		"admin2": null,
		"country_iso2": "CO"
	},
	{
		"name": "Conejo Sucio by Licodeluxe",
		"external_id": "441365212684516",
		"external_id_source": "facebook_places",
		"lat": 6.2090732,
		"lng": -75.56848,
		"address": "Calle 9 # 40-20, Medellín, Antioquia",
		"minimum_age": 0.0,
		"url": "https://www.instagram.com/explore/locations/441365212684516",
		"city": "Itagui",
		"admin1": "Antioquia",
		"admin2": null,
		"country_iso2": "CO"
	},
	{
		"name": "Coyote Discoteca",
		"external_id": "1485288561789810",
		"external_id_source": "facebook_places",
		"lat": 6.209081,
		"lng": -75.5683726,
		"address": "Cra 40 # 9 - 21, Medellín",
		"minimum_age": 0.0,
		"url": "https://www.instagram.com/explore/locations/1485288561789810",
		"city": "Itagui",
		"admin1": "Antioquia",
		"admin2": null,
		"country_iso2": "CO"
	},
	{
		"name": "El Chinchorro Lleras- Puerto Rican Mojito Bar",
		"external_id": "105125544750754",
		"external_id_source": "facebook_places",
		"lat": 6.2085504153,
		"lng": -75.568245,
		"address": "calle 9 39-25, Medellín, Antioquia",
		"minimum_age": 0.0,
		"url": "https://www.instagram.com/explore/locations/105125544750754",
		"city": "Itagui",
		"admin1": "Antioquia",
		"admin2": null,
		"country_iso2": "CO"
	},
	{
		"name": "Envy Rooftop",
		"external_id": "179620182083789",
		"external_id_source": "facebook_places",
		"lat": 6.2088386,
		"lng": -75.5669661,
		"address": "calle 9a # 37-16, Medellín",
		"minimum_age": 0.0,
		"url": "https://www.instagram.com/explore/locations/179620182083789",
		"city": "Itagui",
		"admin1": "Antioquia",
		"admin2": null,
		"country_iso2": "CO"
	},
	{
		"name": "Hookah Club",
		"external_id": "736230223172380",
		"external_id_source": "facebook_places",
		"lat": 6.209312938,
		"lng": -75.568107521,
		"address": "Cr40 #9-35 Parque Lleras, Medellín, Antioquia",
		"minimum_age": 0.0,
		"url": "https://www.instagram.com/explore/locations/736230223172380",
		"city": "Itagui",
		"admin1": "Antioquia",
		"admin2": null,
		"country_iso2": "CO"
	},
	{
		"name": "Hostal Black Sheep",
		"external_id": "2244412499152393",
		"external_id_source": "facebook_places",
		"lat": 6.2073654013,
		"lng": -75.5755618764,
		"address": "Transversal 5A #45-133, Medellín, Antioquia",
		"minimum_age": 0.0,
		"url": "https://www.instagram.com/explore/locations/2244412499152393",
		"city": "Itagui",
		"admin1": "Antioquia",
		"admin2": null,
		"country_iso2": "CO"
	},
	{
		"name": "Hotel Dann Carlton Medellín",
		"external_id": "115457088541001",
		"external_id_source": "facebook_places",
		"lat": 6.207354211,
		"lng": -75.5705895022,
		"address": "Carrera 43a # 7-50, Medellín, Colombia",
		"minimum_age": 0.0,
		"url": "https://www.instagram.com/explore/locations/115457088541001",
		"city": "Itagui",
		"admin1": "Antioquia",
		"admin2": null,
		"country_iso2": "CO"
	},
	{
		"name": "La Octava Bar",
		"external_id": "206558392688599",
		"external_id_source": "facebook_places",
		"lat": 6.2073459,
		"lng": -75.5681365,
		"address": null,
		"minimum_age": 0.0,
		"url": "https://www.instagram.com/explore/locations/206558392688599",
		"city": "Itagui",
		"admin1": "Antioquia",
		"admin2": null,
		"country_iso2": "CO"
	},
	{
		"name": "Lleras Green Hotel",
		"external_id": "1604899989771905",
		"external_id_source": "facebook_places",
		"lat": 6.2091451323,
		"lng": -75.568593745,
		"address": "Calle 9 # 40 - 30, Medellín",
		"minimum_age": 0.0,
		"url": "https://www.instagram.com/explore/locations/1604899989771905",
		"city": "Itagui",
		"admin1": "Antioquia",
		"admin2": null,
		"country_iso2": "CO"
	},
	{
		"name": "Lleras Park Disco Club",
		"external_id": "1786185498081944",
		"external_id_source": "facebook_places",
		"lat": 6.2090762,
		"lng": -75.5683742,
		"address": "Parque lleras Cra. 40 # 9- 19, Medellín - Antioquia, Colombia, Medellín, Antioquia",
		"minimum_age": 0.0,
		"url": "https://www.instagram.com/explore/locations/1786185498081944",
		"city": "Itagui",
		"admin1": "Antioquia",
		"admin2": null,
		"country_iso2": "CO"
	},
	{
		"name": "Marquee Hotel",
		"external_id": "104705821752026",
		"external_id_source": "facebook_places",
		"lat": 6.2090236293,
		"lng": -75.5675804615,
		"address": "Marquee Hotel, Medellín, Antioquia",
		"minimum_age": 0.0,
		"url": "https://www.instagram.com/explore/locations/104705821752026",
		"city": "Itagui",
		"admin1": "Antioquia",
		"admin2": null,
		"country_iso2": "CO"
	},
	{
		"name": "Medellin Beer factory",
		"external_id": "1695397244015564",
		"external_id_source": "facebook_places",
		"lat": 6.208774154,
		"lng": -75.56563,
		"address": "Calle 10 # 35 16, Medellín",
		"minimum_age": 0.0,
		"url": "https://www.instagram.com/explore/locations/1695397244015564",
		"city": "Itagui",
		"admin1": "Antioquia",
		"admin2": null,
		"country_iso2": "CO"
	},
	{
		"name": "Mi Habana",
		"external_id": "166236600704",
		"external_id_source": "facebook_places",
		"lat": 6.2090666,
		"lng": -75.5683774,
		"address": "Carrera 40 # 9 -15 Parque Lleras, Medellín",
		"minimum_age": 0.0,
		"url": "https://www.instagram.com/explore/locations/166236600704",
		"city": "Itagui",
		"admin1": "Antioquia",
		"admin2": null,
		"country_iso2": "CO"
	},
	{
		"name": "Parque Lleras",
		"external_id": "238868926447754",
		"external_id_source": "facebook_places",
		"lat": 6.2088263101,
		"lng": -75.567612648,
		"address": null,
		"minimum_age": 0.0,
		"url": "https://www.instagram.com/explore/locations/238868926447754",
		"city": "Itagui",
		"admin1": "Antioquia",
		"admin2": null,
		"country_iso2": "CO"
	},
	{
		"name": "Restaurante El Cielo",
		"external_id": "916550845093129",
		"external_id_source": "facebook_places",
		"lat": 6.2105571013,
		"lng": -75.5675521629,
		"address": "medellin, Medellín, Antioquia",
		"minimum_age": 0.0,
		"url": "https://www.instagram.com/explore/locations/916550845093129",
		"city": "Itagui",
		"admin1": "Antioquia",
		"admin2": null,
		"country_iso2": "CO"
	},
	{
		"name": "Rodeo Country Club",
		"external_id": "1001871509880575",
		"external_id_source": "facebook_places",
		"lat": 6.2074776268,
		"lng": -75.5969923438,
		"address": null,
		"minimum_age": 0.0,
		"url": "https://www.instagram.com/explore/locations/1001871509880575",
		"city": "Itagui",
		"admin1": "Antioquia",
		"admin2": null,
		"country_iso2": "CO"
	},
	{
		"name": "Rustic Restaurante Lounge",
		"external_id": "227998691006956",
		"external_id_source": "facebook_places",
		"lat": 6.209980854,
		"lng": -75.5685605486,
		"address": "Carrera 41 #10 - 06 , Medellín",
		"minimum_age": 0.0,
		"url": "https://www.instagram.com/explore/locations/227998691006956",
		"city": "Itagui",
		"admin1": "Antioquia",
		"admin2": null,
		"country_iso2": "CO"
	},
	{
		"name": "The Charlee Hotel",
		"external_id": "102598148018847",
		"external_id_source": "facebook_places",
		"lat": 6.2089104794,
		"lng": -75.5669962615,
		"address": "Calle 9A 37-16",
		"minimum_age": 0.0,
		"url": "https://www.instagram.com/explore/locations/102598148018847",
		"city": "Itagui",
		"admin1": "Antioquia",
		"admin2": null,
		"country_iso2": "CO"
	},
	{
		"name": "Tropical Cocktails",
		"external_id": "179196325443397",
		"external_id_source": "facebook_places",
		"lat": 6.2077432,
		"lng": -75.5682123,
		"address": "Calle 8, Medellín, Colombia",
		"minimum_age": 0.0,
		"url": "https://www.instagram.com/explore/locations/179196325443397",
		"city": "Itagui",
		"admin1": "Antioquia",
		"admin2": null,
		"country_iso2": "CO"
	},
	{
		"name": "Zona rosa El Poblado",
		"external_id": "479111759141753",
		"external_id_source": "facebook_places",
		"lat": 6.2089477,
		"lng": -75.5675435,
		"address": null,
		"minimum_age": 0.0,
		"url": "https://www.instagram.com/explore/locations/479111759141753",
		"city": "Itagui",
		"admin1": "Antioquia",
		"admin2": null,
		"country_iso2": "CO"
	},
	{
		"name": "Cafe Jardin",
		"external_id": "692539697847631",
		"external_id_source": "facebook_places",
		"lat": 5.609146,
		"lng": -75.819388,
		"address": "Vereda La Salada",
		"minimum_age": 0.0,
		"url": "https://www.instagram.com/explore/locations/692539697847631",
		"city": "Jardin",
		"admin1": "Antioquia",
		"admin2": null,
		"country_iso2": "CO"
	},
	{
		"name": "Café Macanas jardín",
		"external_id": "224082624392863",
		"external_id_source": "facebook_places",
		"lat": 5.5989763005,
		"lng": -75.8187687187,
		"address": "Cr 5 # 9 - 43 Parque Principal, Casa Amarilla al lado de la Basílica , Jardín (Antioquia)",
		"minimum_age": 0.0,
		"url": "https://www.instagram.com/explore/locations/224082624392863",
		"city": "Jardin",
		"admin1": "Antioquia",
		"admin2": null,
		"country_iso2": "CO"
	},
	{
		"name": "La Argelia - Restaurante,  Molienda y Truchera",
		"external_id": "1384414945197534",
		"external_id_source": "facebook_places",
		"lat": 5.6059663832,
		"lng": -75.8132881412,
		"address": "Km 1 vereda la salada, Jardín",
		"minimum_age": 0.0,
		"url": "https://www.instagram.com/explore/locations/1384414945197534",
		"city": "Jardin",
		"admin1": "Antioquia",
		"admin2": null,
		"country_iso2": "CO"
	},
	{
		"name": "Hotel Balcon De Las Heliconias",
		"external_id": "1975962932640966",
		"external_id_source": "facebook_places",
		"lat": 3.7225,
		"lng": -76.0208,
		"address": null,
		"minimum_age": 0.0,
		"url": "https://www.instagram.com/explore/locations/1975962932640966",
		"city": "La Cumbre",
		"admin1": "Valle del Cauca",
		"admin2": null,
		"country_iso2": "CO"
	},
	{
		"name": "Mirazur Picnic",
		"external_id": "1646242649015129",
		"external_id_source": "facebook_places",
		"lat": 7.1257649884,
		"lng": -73.1871441007,
		"address": "frente a la pista del aeropuerto palo negro, Bucaramanga",
		"minimum_age": 0.0,
		"url": "https://www.instagram.com/explore/locations/1646242649015129",
		"city": "Lebrija",
		"admin1": "Santander",
		"admin2": null,
		"country_iso2": "CO"
	},
	{
		"name": "Restaurante-Bar. Mafufo",
		"external_id": "101856298230825",
		"external_id_source": "facebook_places",
		"lat": 7.1203009121,
		"lng": -73.445277214,
		"address": "km 66 vía Barranca finca las vegas, Betulia (Santander)",
		"minimum_age": 0.0,
		"url": "https://www.instagram.com/explore/locations/101856298230825",
		"city": "Lebrija",
		"admin1": "Santander",
		"admin2": null,
		"country_iso2": "CO"
	},
	{
		"name": "La Mula - Restaurante Bar",
		"external_id": "101769272219877",
		"external_id_source": "facebook_places",
		"lat": 9.2653564275,
		"lng": -75.823135972,
		"address": "Km 2 Vía a Coveñas, Santa Cruz de Lorica",
		"minimum_age": 0.0,
		"url": "https://www.instagram.com/explore/locations/101769272219877",
		"city": "Lorica",
		"admin1": "Cordoba",
		"admin2": null,
		"country_iso2": "CO"
	},
	{
		"name": "Finca Hotel Los Arrayanes",
		"external_id": "197771020251179",
		"external_id_source": "facebook_places",
		"lat": 5.7066149744,
		"lng": -75.9109265717,
		"address": "km5 via taparto, Andes, Antioquia",
		"minimum_age": 0.0,
		"url": "https://www.instagram.com/explore/locations/197771020251179",
		"city": "Los Andes",
		"admin1": "Antioquia",
		"admin2": null,
		"country_iso2": "CO"
	},
	{
		"name": "Manolos Drinks",
		"external_id": "1033388873383218",
		"external_id_source": "facebook_places",
		"lat": 9.3796799019,
		"lng": -75.2693579466,
		"address": "BARRIO LAS LOMAS LOS PALMITOS SUCRE , Corregimiento Los Palmitos, Sucre, Colombia",
		"minimum_age": 0.0,
		"url": "https://www.instagram.com/explore/locations/1033388873383218",
		"city": "Los Palmitos",
		"admin1": "Sucre",
		"admin2": null,
		"country_iso2": "CO"
	},
	{
		"name": "Turco's",
		"external_id": "104114841169686",
		"external_id_source": "facebook_places",
		"lat": 9.38097,
		"lng": -75.27081,
		"address": "Condominio Campestre Brisas del Campano, Los Palmitos",
		"minimum_age": 0.0,
		"url": "https://www.instagram.com/explore/locations/104114841169686",
		"city": "Los Palmitos",
		"admin1": "Sucre",
		"admin2": null,
		"country_iso2": "CO"
	},
	{
		"name": "AramiS Restaurante Bar",
		"external_id": "101104935453974",
		"external_id_source": "facebook_places",
		"lat": 6.6992718961,
		"lng": -72.7327510715,
		"address": "calle 12 # 8 - 27 Parque, Málaga, Santander, Colombia",
		"minimum_age": 0.0,
		"url": "https://www.instagram.com/explore/locations/101104935453974",
		"city": "Malaga",
		"admin1": "Santander",
		"admin2": null,
		"country_iso2": "CO"
	},
	{
		"name": "bar la chula",
		"external_id": "117377075572723",
		"external_id_source": null,
		"lat": null,
		"lng": null,
		"address": null,
		"minimum_age": null,
		"url": "https://www.instagram.com/explore/locations/117377075572723",
		"city": "Medellin",
		"admin1": null,
		"admin2": null,
		"country_iso2": null
	},
	{
		"name": "Chupitos Medellin",
		"external_id": "1404424979792080",
		"external_id_source": null,
		"lat": null,
		"lng": null,
		"address": null,
		"minimum_age": null,
		"url": "https://www.instagram.com/explore/locations/1404424979792080",
		"city": "Medellin",
		"admin1": null,
		"admin2": null,
		"country_iso2": null
	},
	{
		"name": "Crepes Y Wafles Laureles",
		"external_id": "196264697596379",
		"external_id_source": "facebook_places",
		"lat": 6.244999,
		"lng": -75.5949615,
		"address": "Tr39 B # 73 B-60",
		"minimum_age": 0.0,
		"url": "https://www.instagram.com/explore/locations/196264697596379",
		"city": "Medellin",
		"admin1": "Antioquia",
		"admin2": null,
		"country_iso2": "CO"
	},
	{
		"name": "Dulce jesus mio",
		"external_id": "312846122",
		"external_id_source": null,
		"lat": null,
		"lng": null,
		"address": null,
		"minimum_age": null,
		"url": "https://www.instagram.com/explore/locations/312846122",
		"city": "Medellin",
		"admin1": null,
		"admin2": null,
		"country_iso2": null
	},
	{
		"name": "Guadalupe Mexican grill & Bar",
		"external_id": "313827469352055",
		"external_id_source": "facebook_places",
		"lat": 6.2350210687,
		"lng": -75.5963581036,
		"address": null,
		"minimum_age": 0.0,
		"url": "https://www.instagram.com/explore/locations/313827469352055",
		"city": "Medellin",
		"admin1": "Antioquia",
		"admin2": null,
		"country_iso2": "CO"
	},
	{
		"name": "Jyc Delicias Laureles",
		"external_id": "1500773199943192",
		"external_id_source": "facebook_places",
		"lat": 6.2403035951,
		"lng": -75.5966188492,
		"address": null,
		"minimum_age": 0.0,
		"url": "https://www.instagram.com/explore/locations/1500773199943192",
		"city": "Medellin",
		"admin1": "Antioquia",
		"admin2": null,
		"country_iso2": "CO"
	},
	{
		"name": "Kapital Music",
		"external_id": "136670209838767",
		"external_id_source": "facebook_places",
		"lat": 6.2385305,
		"lng": -75.5984736,
		"address": "Cra. 78 #32f 21, Medellín",
		"minimum_age": 0.0,
		"url": "https://www.instagram.com/explore/locations/136670209838767",
		"city": "Medellin",
		"admin1": "Antioquia",
		"admin2": null,
		"country_iso2": "CO"
	},
	{
		"name": "La 70 - Medellín",
		"external_id": "16848971",
		"external_id_source": null,
		"lat": null,
		"lng": null,
		"address": null,
		"minimum_age": null,
		"url": "https://www.instagram.com/explore/locations/16848971",
		"city": "Medellin",
		"admin1": null,
		"admin2": null,
		"country_iso2": null
	},
	{
		"name": "La Gatoría Cat Café",
		"external_id": "198888563995263",
		"external_id_source": "facebook_places",
		"lat": 6.2396472031,
		"lng": -75.6022882462,
		"address": "Carrera 80c # 33-84, Medellín",
		"minimum_age": 0.0,
		"url": "https://www.instagram.com/explore/locations/198888563995263",
		"city": "Medellin",
		"admin1": "Antioquia",
		"admin2": null,
		"country_iso2": "CO"
	},
	{
		"name": "Parque Lleras",
		"external_id": "1033012903",
		"external_id_source": null,
		"lat": null,
		"lng": null,
		"address": null,
		"minimum_age": null,
		"url": "https://www.instagram.com/explore/locations/1033012903",
		"city": "Medellin",
		"admin1": null,
		"admin2": null,
		"country_iso2": null
	},
	{
		"name": "Romero Cocina Artesanal",
		"external_id": "773322329674891",
		"external_id_source": "facebook_places",
		"lat": 6.2458913843,
		"lng": -75.5960148164,
		"address": "Transversal 39B # 74B - 09",
		"minimum_age": 0.0,
		"url": "https://www.instagram.com/explore/locations/773322329674891",
		"city": "Medellin",
		"admin1": "Antioquia",
		"admin2": null,
		"country_iso2": "CO"
	},
	{
		"name": "Trilogia Bar Medellin",
		"external_id": "218968026",
		"external_id_source": null,
		"lat": null,
		"lng": null,
		"address": null,
		"minimum_age": null,
		"url": "https://www.instagram.com/explore/locations/218968026",
		"city": "Medellin",
		"admin1": null,
		"admin2": null,
		"country_iso2": null
	},
	{
		"name": "Voraz Restaurante",
		"external_id": "1986802601604469",
		"external_id_source": "facebook_places",
		"lat": 6.246192,
		"lng": -75.59644,
		"address": "Transversal 39b circular 74b -41, Medellín, Antioquia",
		"minimum_age": 0.0,
		"url": "https://www.instagram.com/explore/locations/1986802601604469",
		"city": "Medellin",
		"admin1": "Antioquia",
		"admin2": null,
		"country_iso2": "CO"
	},
	{
		"name": "LaRiveracafe",
		"external_id": "433995717021607",
		"external_id_source": "facebook_places",
		"lat": 5.2087948327,
		"lng": -73.1101727486,
		"address": "Sector el Limonal Berbeo Boyacá , Berbeo",
		"minimum_age": 0.0,
		"url": "https://www.instagram.com/explore/locations/433995717021607",
		"city": "Miraflores",
		"admin1": "Boyaca",
		"admin2": null,
		"country_iso2": "CO"
	},
	{
		"name": "Moñitos",
		"external_id": "195684617456821",
		"external_id_source": "facebook_places",
		"lat": 8.25,
		"lng": -76.05,
		"address": null,
		"minimum_age": 0.0,
		"url": "https://www.instagram.com/explore/locations/195684617456821",
		"city": "Monitos",
		"admin1": "Cordoba",
		"admin2": null,
		"country_iso2": "CO"
	},
	{
		"name": "Le Mont",
		"external_id": "257377719501804",
		"external_id_source": "facebook_places",
		"lat": 5.9797550918,
		"lng": -75.564067835,
		"address": "Avenida Las Palmas #Km 15.990, Envigado, Antioquia, Envigado",
		"minimum_age": 0.0,
		"url": "https://www.instagram.com/explore/locations/257377719501804",
		"city": "Montebello",
		"admin1": "Antioquia",
		"admin2": null,
		"country_iso2": "CO"
	},
	{
		"name": "Asados el mañe",
		"external_id": "111592007311853",
		"external_id_source": "facebook_places",
		"lat": 7.8871664837,
		"lng": -75.671864748,
		"address": "calle 13 # 10 - 24 , Bijao, Cordoba, Colombia",
		"minimum_age": 0.0,
		"url": "https://www.instagram.com/explore/locations/111592007311853",
		"city": "Montelibano",
		"admin1": "Cordoba",
		"admin2": null,
		"country_iso2": "CO"
	},
	{
		"name": "Restaurante Arazá",
		"external_id": "325451424663992",
		"external_id_source": "facebook_places",
		"lat": 8.04992,
		"lng": -75.57362,
		"address": "Montelíbano, Cordoba, Colombia",
		"minimum_age": 0.0,
		"url": "https://www.instagram.com/explore/locations/325451424663992",
		"city": "Montelibano",
		"admin1": "Cordoba",
		"admin2": null,
		"country_iso2": "CO"
	},
	{
		"name": "Color Café",
		"external_id": "105970401735396",
		"external_id_source": "facebook_places",
		"lat": 2.9255518,
		"lng": -75.288159,
		"address": "Carrera 5 6-28, Neiva",
		"minimum_age": 0.0,
		"url": "https://www.instagram.com/explore/locations/105970401735396",
		"city": "Neiva",
		"admin1": "Huila",
		"admin2": null,
		"country_iso2": "CO"
	},
	{
		"name": "Hotel Neiva Plaza",
		"external_id": "142960829085526",
		"external_id_source": "facebook_places",
		"lat": 2.9258028857,
		"lng": -75.2887187624,
		"address": "Cll 7 # 4-62, Neiva, Huila",
		"minimum_age": 0.0,
		"url": "https://www.instagram.com/explore/locations/142960829085526",
		"city": "Neiva",
		"admin1": "Huila",
		"admin2": null,
		"country_iso2": "CO"
	},
	{
		"name": "Huila Café",
		"external_id": "212914532060274",
		"external_id_source": "facebook_places",
		"lat": 2.9253350455,
		"lng": -75.2881634136,
		"address": "Cl. 7 6-59 L-7, Neiva, Huila",
		"minimum_age": 0.0,
		"url": "https://www.instagram.com/explore/locations/212914532060274",
		"city": "Neiva",
		"admin1": "Huila",
		"admin2": null,
		"country_iso2": "CO"
	},
	{
		"name": "Hotel Hacienda Guane",
		"external_id": "100400125353055",
		"external_id_source": "facebook_places",
		"lat": 6.2152951408,
		"lng": -73.3144873381,
		"address": "Kilometro 6 via Oiba-Bogotá, Oiba, Santander",
		"minimum_age": 0.0,
		"url": "https://www.instagram.com/explore/locations/100400125353055",
		"city": "Oiba",
		"admin1": "Santander",
		"admin2": null,
		"country_iso2": "CO"
	},
	{
		"name": "Las Rokas Club",
		"external_id": "1520648128187679",
		"external_id_source": "facebook_places",
		"lat": 5.7456055799,
		"lng": -73.1032338039,
		"address": "via Pantano de Vargas, Paipa, Boyaca",
		"minimum_age": 0.0,
		"url": "https://www.instagram.com/explore/locations/1520648128187679",
		"city": "Paipa",
		"admin1": "Boyaca",
		"admin2": null,
		"country_iso2": "CO"
	},
	{
		"name": "ROCK PLAZA",
		"external_id": "368257470612309",
		"external_id_source": "facebook_places",
		"lat": 4.8147849021,
		"lng": -75.6984126509,
		"address": "CALLE 24 NO. 7-31 LOCAL 207, Pereira",
		"minimum_age": 0.0,
		"url": "https://www.instagram.com/explore/locations/368257470612309",
		"city": "Pereira",
		"admin1": "Risaralda",
		"admin2": null,
		"country_iso2": "CO"
	},
	{
		"name": "The Cotton Club",
		"external_id": "320069481379399",
		"external_id_source": "facebook_places",
		"lat": 4.8136444,
		"lng": -75.6975937,
		"address": "Calle 23 Nº 8-55, Pereira",
		"minimum_age": 0.0,
		"url": "https://www.instagram.com/explore/locations/320069481379399",
		"city": "Pereira",
		"admin1": "Risaralda",
		"admin2": null,
		"country_iso2": "CO"
	},
	{
		"name": "Urbano Restaurante - Bar",
		"external_id": "1016906121",
		"external_id_source": null,
		"lat": null,
		"lng": null,
		"address": null,
		"minimum_age": null,
		"url": "https://www.instagram.com/explore/locations/1016906121",
		"city": "Pereira",
		"admin1": null,
		"admin2": null,
		"country_iso2": null
	},
	{
		"name": "Zona Café",
		"external_id": "133563877325709",
		"external_id_source": "facebook_places",
		"lat": 3.1185762168,
		"lng": -75.6298828125,
		"address": null,
		"minimum_age": 0.0,
		"url": "https://www.instagram.com/explore/locations/133563877325709",
		"city": "Planadas",
		"admin1": "Tolima",
		"admin2": null,
		"country_iso2": "CO"
	},
	{
		"name": "Tintin Chicharrón",
		"external_id": "101004592098736",
		"external_id_source": "facebook_places",
		"lat": 9.79211,
		"lng": -74.78357,
		"address": "Plato, Colombia, Plato, Magdalena",
		"minimum_age": 0.0,
		"url": "https://www.instagram.com/explore/locations/101004592098736",
		"city": "Plato",
		"admin1": "Magdalena",
		"admin2": null,
		"country_iso2": "CO"
	},
	{
		"name": "Punto pilsener",
		"external_id": "248771296076749",
		"external_id_source": "facebook_places",
		"lat": 0.25,
		"lng": -76.4,
		"address": "lago agrio, Santa Rosa De Sucumbíos, Sucumbios, Ecuador",
		"minimum_age": 0.0,
		"url": "https://www.instagram.com/explore/locations/248771296076749",
		"city": "Puerto Asis",
		"admin1": "Putumayo",
		"admin2": null,
		"country_iso2": "CO"
	},
	{
		"name": "Kilymandiaro Sunset Paradise",
		"external_id": "1460567437567967",
		"external_id_source": "facebook_places",
		"lat": 11.0057460475,
		"lng": -74.9525275254,
		"address": "Kilymandiaro - Calle 2, Pradomar - Atlántico, Puerto Colombia, Atlantico, Colombia",
		"minimum_age": 0.0,
		"url": "https://www.instagram.com/explore/locations/1460567437567967",
		"city": "Puerto Colombia",
		"admin1": "Atlantico",
		"admin2": null,
		"country_iso2": "CO"
	},
	{
		"name": "Tótem 90",
		"external_id": "100522945463705",
		"external_id_source": "facebook_places",
		"lat": 10.9935192469,
		"lng": -74.9443586547,
		"address": "Puerto Colombia, Barranquilla",
		"minimum_age": 0.0,
		"url": "https://www.instagram.com/explore/locations/100522945463705",
		"city": "Puerto Colombia",
		"admin1": "Atlantico",
		"admin2": null,
		"country_iso2": "CO"
	},
	{
		"name": "Bar Kanalón",
		"external_id": "225730505013328",
		"external_id_source": "facebook_places",
		"lat": 2.1088986592,
		"lng": -75.234375,
		"address": "Cra 53 #53-03, Andes (Antioquia)",
		"minimum_age": 0.0,
		"url": "https://www.instagram.com/explore/locations/225730505013328",
		"city": "Puerto Rico",
		"admin1": "Caqueta",
		"admin2": null,
		"country_iso2": "CO"
	},
	{
		"name": "Hotel Ráquira Silvestre Lodge",
		"external_id": "184950714849229",
		"external_id_source": "facebook_places",
		"lat": 5.548146,
		"lng": -73.67696,
		"address": "Tinjacá",
		"minimum_age": 0.0,
		"url": "https://www.instagram.com/explore/locations/184950714849229",
		"city": "Raquira",
		"admin1": "Boyaca",
		"admin2": null,
		"country_iso2": "CO"
	},
	{
		"name": "GATO TINTO CAFE",
		"external_id": "1902983879840378",
		"external_id_source": "facebook_places",
		"lat": 3.46833,
		"lng": -75.6083,
		"address": "057, Colombia, Tolima, Colombia",
		"minimum_age": 0.0,
		"url": "https://www.instagram.com/explore/locations/1902983879840378",
		"city": "Rioblanco",
		"admin1": "Tolima",
		"admin2": null,
		"country_iso2": "CO"
	},
	{
		"name": "Pizzeria Banbino#1",
		"external_id": "1634921173402413",
		"external_id_source": "facebook_places",
		"lat": 4.0107898,
		"lng": -75.6047024,
		"address": "k1#4 -26 BARRIO CENTRO , Roncesvalles (Tolima)",
		"minimum_age": 0.0,
		"url": "https://www.instagram.com/explore/locations/1634921173402413",
		"city": "Roncesvalles",
		"admin1": "Tolima",
		"admin2": null,
		"country_iso2": "CO"
	},
	{
		"name": "Hotel Freeway",
		"external_id": "2077563309140805",
		"external_id_source": "facebook_places",
		"lat": 7.5087532767,
		"lng": -73.55647275,
		"address": "Rionegro, Santander",
		"minimum_age": 0.0,
		"url": "https://www.instagram.com/explore/locations/2077563309140805",
		"city": "Sabana de Torres",
		"admin1": "Santander",
		"admin2": null,
		"country_iso2": "CO"
	},
	{
		"name": "Castillo Gourmet",
		"external_id": "749098681809206",
		"external_id_source": "facebook_places",
		"lat": 10.6318758,
		"lng": -74.9218955,
		"address": null,
		"minimum_age": 0.0,
		"url": "https://www.instagram.com/explore/locations/749098681809206",
		"city": "Sabanalarga",
		"admin1": "Atlantico",
		"admin2": null,
		"country_iso2": "CO"
	},
	{
		"name": "Hanne Cay",
		"external_id": "662345450485864",
		"external_id_source": "facebook_places",
		"lat": 12.58630515,
		"lng": -81.702125,
		"address": null,
		"minimum_age": 0.0,
		"url": "https://www.instagram.com/explore/locations/662345450485864",
		"city": "San Andres",
		"admin1": "Archipielago de San Andres, Providencia y Santa Catalina",
		"admin2": null,
		"country_iso2": "CO"
	},
	{
		"name": "Haynes Cay",
		"external_id": "449130391807850",
		"external_id_source": "facebook_places",
		"lat": 12.58521,
		"lng": -81.69604,
		"address": "Isla de San Andres, San Andrés, San Andrés y Providencia",
		"minimum_age": 0.0,
		"url": "https://www.instagram.com/explore/locations/449130391807850",
		"city": "San Andres",
		"admin1": "Archipielago de San Andres, Providencia y Santa Catalina",
		"admin2": null,
		"country_iso2": "CO"
	},
	{
		"name": "Isla Rocky Kay",
		"external_id": "182272575684661",
		"external_id_source": "facebook_places",
		"lat": 12.5847,
		"lng": -81.7006,
		"address": null,
		"minimum_age": 0.0,
		"url": "https://www.instagram.com/explore/locations/182272575684661",
		"city": "San Andres",
		"admin1": "Archipielago de San Andres, Providencia y Santa Catalina",
		"admin2": null,
		"country_iso2": "CO"
	},
	{
		"name": "Restaurante y Cervecería Beer Station",
		"external_id": "421339101741764",
		"external_id_source": "facebook_places",
		"lat": 12.58363,
		"lng": -81.703925,
		"address": "San Andrés, San Andrés y Providencia",
		"minimum_age": 0.0,
		"url": "https://www.instagram.com/explore/locations/421339101741764",
		"city": "San Andres",
		"admin1": "Archipielago de San Andres, Providencia y Santa Catalina",
		"admin2": null,
		"country_iso2": "CO"
	},
	{
		"name": "Coco Loco Discoclub",
		"external_id": "218989609",
		"external_id_source": null,
		"lat": null,
		"lng": null,
		"address": null,
		"minimum_age": null,
		"url": "https://www.instagram.com/explore/locations/218989609",
		"city": "San Andrés",
		"admin1": null,
		"admin2": null,
		"country_iso2": null
	},
	{
		"name": "Bucanero's Restaurante-Bar",
		"external_id": "252723035446953",
		"external_id_source": "facebook_places",
		"lat": 9.3948461605,
		"lng": -75.7814418505,
		"address": "Playa Bucaneros\n, San Antero",
		"minimum_age": 0.0,
		"url": "https://www.instagram.com/explore/locations/252723035446953",
		"city": "San Antero",
		"admin1": "Cordoba",
		"admin2": null,
		"country_iso2": "CO"
	},
	{
		"name": "Hotel Mirador Dubai",
		"external_id": "108037541835355",
		"external_id_source": "facebook_places",
		"lat": 9.3634037134,
		"lng": -75.7523124816,
		"address": "San Antero",
		"minimum_age": 0.0,
		"url": "https://www.instagram.com/explore/locations/108037541835355",
		"city": "San Antero",
		"admin1": "Cordoba",
		"admin2": null,
		"country_iso2": "CO"
	},
	{
		"name": "Hotel Playa Blanca San Antero",
		"external_id": "1385932925014877",
		"external_id_source": "facebook_places",
		"lat": 9.37806,
		"lng": -75.7561,
		"address": "San Antero Córdoba, en Playa blanca, a tan solo 15 minutos de coveñas y 45 minutos de Tolú",
		"minimum_age": 0.0,
		"url": "https://www.instagram.com/explore/locations/1385932925014877",
		"city": "San Antero",
		"admin1": "Cordoba",
		"admin2": null,
		"country_iso2": "CO"
	},
	{
		"name": "Hotel mirador Bahía Rada",
		"external_id": "106086935346035",
		"external_id_source": "facebook_places",
		"lat": 9.2982703534,
		"lng": -76.1074769497,
		"address": "La Rada, moñitos (Córdoba), Moñitos",
		"minimum_age": 0.0,
		"url": "https://www.instagram.com/explore/locations/106086935346035",
		"city": "San Bernardo del Viento",
		"admin1": "Cordoba",
		"admin2": null,
		"country_iso2": "CO"
	},
	{
		"name": "La Playita Isla Fuerte",
		"external_id": "154789548231076",
		"external_id_source": "facebook_places",
		"lat": 9.3813142736,
		"lng": -76.1766511133,
		"address": "Calle Playita, Pueblo Isla Fuerte, Cordoba, Colombia",
		"minimum_age": 0.0,
		"url": "https://www.instagram.com/explore/locations/154789548231076",
		"city": "San Bernardo del Viento",
		"admin1": "Cordoba",
		"admin2": null,
		"country_iso2": "CO"
	},
	{
		"name": "Granadilla Market",
		"external_id": "101711748802172",
		"external_id_source": "facebook_places",
		"lat": 3.9080988819,
		"lng": -73.4024047852,
		"address": "Calle 21 # 13-48 Las Delicias, Granada (Meta)",
		"minimum_age": 0.0,
		"url": "https://www.instagram.com/explore/locations/101711748802172",
		"city": "San Carlos de Guaroa",
		"admin1": "Meta",
		"admin2": null,
		"country_iso2": "CO"
	},
	{
		"name": "Restaurante hotel parador el molino",
		"external_id": "100880288328936",
		"external_id_source": "facebook_places",
		"lat": 5.9986409031,
		"lng": -75.0136871667,
		"address": "San Luis (Antioquia)",
		"minimum_age": 0.0,
		"url": "https://www.instagram.com/explore/locations/100880288328936",
		"city": "San Luis",
		"admin1": "Antioquia",
		"admin2": null,
		"country_iso2": "CO"
	},
	{
		"name": "Chelada",
		"external_id": "105656158126528",
		"external_id_source": "facebook_places",
		"lat": 8.6586851262,
		"lng": -75.1307242634,
		"address": "Ed. Antiguo TELECOM",
		"minimum_age": 0.0,
		"url": "https://www.instagram.com/explore/locations/105656158126528",
		"city": "San Marcos",
		"admin1": "Sucre",
		"admin2": null,
		"country_iso2": "CO"
	},
	{
		"name": "El Oasis",
		"external_id": "843510099334304",
		"external_id_source": "facebook_places",
		"lat": 8.69284,
		"lng": -75.13825,
		"address": "El Oasis",
		"minimum_age": 0.0,
		"url": "https://www.instagram.com/explore/locations/843510099334304",
		"city": "San Marcos",
		"admin1": "Sucre",
		"admin2": null,
		"country_iso2": "CO"
	},
	{
		"name": "LV FOOD",
		"external_id": "102099155558509",
		"external_id_source": "facebook_places",
		"lat": 8.66358,
		"lng": -75.13154,
		"address": "San Marcos, Colombia, San Marcos (Sucre)",
		"minimum_age": 0.0,
		"url": "https://www.instagram.com/explore/locations/102099155558509",
		"city": "San Marcos",
		"admin1": "Sucre",
		"admin2": null,
		"country_iso2": "CO"
	},
	{
		"name": "Restaurante Mi Padre",
		"external_id": "156703594891212",
		"external_id_source": "facebook_places",
		"lat": 8.647365,
		"lng": -75.1006667,
		"address": "Rio San Jorge",
		"minimum_age": 0.0,
		"url": "https://www.instagram.com/explore/locations/156703594891212",
		"city": "San Marcos",
		"admin1": "Sucre",
		"admin2": null,
		"country_iso2": "CO"
	},
	{
		"name": "Terranova Restaurante Bar",
		"external_id": "725392088253598",
		"external_id_source": "facebook_places",
		"lat": 8.66358,
		"lng": -75.13154,
		"address": "San Marcos, Colombia, San Marcos, Sucre",
		"minimum_age": 0.0,
		"url": "https://www.instagram.com/explore/locations/725392088253598",
		"city": "San Marcos",
		"admin1": "Sucre",
		"admin2": null,
		"country_iso2": "CO"
	},
	{
		"name": "Disco bar la 10",
		"external_id": "910657422364132",
		"external_id_source": "facebook_places",
		"lat": 9.3923699001,
		"lng": -75.0651914332,
		"address": "Parque el tamarindo, San Pedro, Sucre",
		"minimum_age": 0.0,
		"url": "https://www.instagram.com/explore/locations/910657422364132",
		"city": "San Pedro",
		"admin1": "Sucre",
		"admin2": null,
		"country_iso2": "CO"
	},
	{
		"name": "Makatana Disco Bar",
		"external_id": "1665867527007167",
		"external_id_source": "facebook_places",
		"lat": 9.39215118,
		"lng": -75.06510364,
		"address": "PARQUE EL TAMARINDO, San Pedro, Sucre",
		"minimum_age": 0.0,
		"url": "https://www.instagram.com/explore/locations/1665867527007167",
		"city": "San Pedro",
		"admin1": "Sucre",
		"admin2": null,
		"country_iso2": "CO"
	},
	{
		"name": "Hotel Club Paradise",
		"external_id": "257229551550582",
		"external_id_source": "facebook_places",
		"lat": 6.2829651028,
		"lng": -75.0345611572,
		"address": "Hotel Club Paradise, San Rafael, Antioquia",
		"minimum_age": 0.0,
		"url": "https://www.instagram.com/explore/locations/257229551550582",
		"city": "San Rafael",
		"admin1": "Antioquia",
		"admin2": null,
		"country_iso2": "CO"
	},
	{
		"name": "ALIZAFIRO CAFE",
		"external_id": "569448286803313",
		"external_id_source": "facebook_places",
		"lat": 6.5132256363,
		"lng": -75.00896,
		"address": "San Roque (Antioquia)",
		"minimum_age": 0.0,
		"url": "https://www.instagram.com/explore/locations/569448286803313",
		"city": "San Roque",
		"admin1": "Antioquia",
		"admin2": null,
		"country_iso2": "CO"
	},
	{
		"name": "Drunk disco una rumba Diferente",
		"external_id": "1536198553140931",
		"external_id_source": "facebook_places",
		"lat": 6.4854539077,
		"lng": -75.0196592725,
		"address": "Cra 20 # 20—18",
		"minimum_age": 0.0,
		"url": "https://www.instagram.com/explore/locations/1536198553140931",
		"city": "San Roque",
		"admin1": "Antioquia",
		"admin2": null,
		"country_iso2": "CO"
	},
	{
		"name": "Klissman Restaurante y Bar",
		"external_id": "105487117941524",
		"external_id_source": "facebook_places",
		"lat": 6.51955,
		"lng": -75.00232,
		"address": "62 San Roque, San Roque, Antioquia",
		"minimum_age": 0.0,
		"url": "https://www.instagram.com/explore/locations/105487117941524",
		"city": "San Roque",
		"admin1": "Antioquia",
		"admin2": null,
		"country_iso2": "CO"
	},
	{
		"name": "selvalunahostal",
		"external_id": "104357658126467",
		"external_id_source": "facebook_places",
		"lat": 3.9930406028,
		"lng": -77.4124145508,
		"address": "Playa la barra, Buenaventura (Valle del Cauca)",
		"minimum_age": 0.0,
		"url": "https://www.instagram.com/explore/locations/104357658126467",
		"city": "Santa Genoveva de Docorodo",
		"admin1": "Choco",
		"admin2": null,
		"country_iso2": "CO"
	},
	{
		"name": "El Chuzo",
		"external_id": "104087592031711",
		"external_id_source": "facebook_places",
		"lat": 2.949,
		"lng": -75.64983,
		"address": "Santa María, Huila",
		"minimum_age": 0.0,
		"url": "https://www.instagram.com/explore/locations/104087592031711",
		"city": "Santa Maria",
		"admin1": "Huila",
		"admin2": null,
		"country_iso2": "CO"
	},
	{
		"name": "Charlies Bar Santa Marta",
		"external_id": "576682876",
		"external_id_source": null,
		"lat": null,
		"lng": null,
		"address": null,
		"minimum_age": null,
		"url": "https://www.instagram.com/explore/locations/576682876",
		"city": "Santa Marta",
		"admin1": null,
		"admin2": null,
		"country_iso2": null
	},
	{
		"name": "Crabs BAR",
		"external_id": "401457363",
		"external_id_source": null,
		"lat": null,
		"lng": null,
		"address": null,
		"minimum_age": null,
		"url": "https://www.instagram.com/explore/locations/401457363",
		"city": "Santa Marta",
		"admin1": null,
		"admin2": null,
		"country_iso2": null
	},
	{
		"name": "Mendihuaca",
		"external_id": "2129169500497963",
		"external_id_source": "facebook_places",
		"lat": 11.2803391356,
		"lng": -73.8711111053,
		"address": "Km 37 Via Santa Marta - Riohacha, Santa Marta, Magdalena",
		"minimum_age": 0.0,
		"url": "https://www.instagram.com/explore/locations/2129169500497963",
		"city": "Santa Marta",
		"admin1": "Magdalena",
		"admin2": null,
		"country_iso2": "CO"
	},
	{
		"name": "Mil Carnes",
		"external_id": "869590846410463",
		"external_id_source": "facebook_places",
		"lat": 11.240977154,
		"lng": -74.1928445613,
		"address": "Av Libertador # 19 - 88, Santa Marta, Magdalena",
		"minimum_age": 0.0,
		"url": "https://www.instagram.com/explore/locations/869590846410463",
		"city": "Santa Marta",
		"admin1": "Magdalena",
		"admin2": null,
		"country_iso2": "CO"
	},
	{
		"name": "Neguanje",
		"external_id": "357891808116272",
		"external_id_source": "facebook_places",
		"lat": 11.2471622089,
		"lng": -74.1417245281,
		"address": null,
		"minimum_age": 0.0,
		"url": "https://www.instagram.com/explore/locations/357891808116272",
		"city": "Santa Marta",
		"admin1": "Magdalena",
		"admin2": null,
		"country_iso2": "CO"
	},
	{
		"name": "Pizza Loca",
		"external_id": "830998120392155",
		"external_id_source": "facebook_places",
		"lat": 11.241360257,
		"lng": -74.1928792071,
		"address": "Avenida del Libertador",
		"minimum_age": 0.0,
		"url": "https://www.instagram.com/explore/locations/830998120392155",
		"city": "Santa Marta",
		"admin1": "Magdalena",
		"admin2": null,
		"country_iso2": "CO"
	},
	{
		"name": "Lake House Resort Country Club",
		"external_id": "405866033140940",
		"external_id_source": "facebook_places",
		"lat": 3.0814691724,
		"lng": -76.4757005213,
		"address": "Santander De Quilichao, Cauca, Colombia",
		"minimum_age": 0.0,
		"url": "https://www.instagram.com/explore/locations/405866033140940",
		"city": "Santander de Quilichao",
		"admin1": "Cauca",
		"admin2": null,
		"country_iso2": "CO"
	},
	{
		"name": "Tres Potrillos",
		"external_id": "455487044603132",
		"external_id_source": "facebook_places",
		"lat": 2.98554959,
		"lng": -76.50842869,
		"address": "via santander-popayan km25",
		"minimum_age": 0.0,
		"url": "https://www.instagram.com/explore/locations/455487044603132",
		"city": "Santander de Quilichao",
		"admin1": "Cauca",
		"admin2": null,
		"country_iso2": "CO"
	},
	{
		"name": "Ali Licores",
		"external_id": "187353335369935",
		"external_id_source": "facebook_places",
		"lat": 10.7596639551,
		"lng": -74.7527334493,
		"address": null,
		"minimum_age": 0.0,
		"url": "https://www.instagram.com/explore/locations/187353335369935",
		"city": "Santo Tomas",
		"admin1": "Atlantico",
		"admin2": null,
		"country_iso2": "CO"
	},
	{
		"name": "Café Y Licores El Abuelo",
		"external_id": "1360312797467065",
		"external_id_source": "facebook_places",
		"lat": 4.5962817,
		"lng": -74.1911184,
		"address": "Soacha",
		"minimum_age": 0.0,
		"url": "https://www.instagram.com/explore/locations/1360312797467065",
		"city": "Soacha",
		"admin1": "Cundinamarca",
		"admin2": null,
		"country_iso2": "CO"
	},
	{
		"name": "Crepes Y Waffles Ventura Terreros",
		"external_id": "104950387795728",
		"external_id_source": "facebook_places",
		"lat": 4.6041200833,
		"lng": -74.19405175,
		"address": null,
		"minimum_age": 0.0,
		"url": "https://www.instagram.com/explore/locations/104950387795728",
		"city": "Soacha",
		"admin1": "Cundinamarca",
		"admin2": null,
		"country_iso2": "CO"
	},
	{
		"name": "Piqueteadero Don Jorge",
		"external_id": "251097695005694",
		"external_id_source": "facebook_places",
		"lat": 4.6175588735,
		"lng": -74.163518293,
		"address": null,
		"minimum_age": 0.0,
		"url": "https://www.instagram.com/explore/locations/251097695005694",
		"city": "Soacha",
		"admin1": "Cundinamarca",
		"admin2": null,
		"country_iso2": "CO"
	},
	{
		"name": "Restaurante Casa Yong Chang",
		"external_id": "1400977223514733",
		"external_id_source": "facebook_places",
		"lat": 4.5961261939,
		"lng": -74.1908409942,
		"address": null,
		"minimum_age": 0.0,
		"url": "https://www.instagram.com/explore/locations/1400977223514733",
		"city": "Soacha",
		"admin1": "Cundinamarca",
		"admin2": null,
		"country_iso2": "CO"
	},
	{
		"name": "Sephia Pub",
		"external_id": "361424464334001",
		"external_id_source": "facebook_places",
		"lat": 4.618265,
		"lng": -74.16459,
		"address": "35 Avenida Ciudad de Villavicencio 79",
		"minimum_age": 0.0,
		"url": "https://www.instagram.com/explore/locations/361424464334001",
		"city": "Soacha",
		"admin1": "Cundinamarca",
		"admin2": null,
		"country_iso2": "CO"
	},
	{
		"name": "Las delicias del fogon",
		"external_id": "102427308650024",
		"external_id_source": "facebook_places",
		"lat": 3.0355908214,
		"lng": -76.9087600979,
		"address": "Calle 10 - Cra 5 diagonal colegio rosario, Miranda, Cauca",
		"minimum_age": 0.0,
		"url": "https://www.instagram.com/explore/locations/102427308650024",
		"city": "Suarez",
		"admin1": "Cauca",
		"admin2": null,
		"country_iso2": "CO"
	},
	{
		"name": "Salchipapas de la sexta - Sucursal Independencia",
		"external_id": "118435084162990",
		"external_id_source": "facebook_places",
		"lat": 3.1031494593,
		"lng": -77.1346664429,
		"address": "Independencia 2etapa pasaje cayola, Buenaventura, Valle del Cauca",
		"minimum_age": 0.0,
		"url": "https://www.instagram.com/explore/locations/118435084162990",
		"city": "Suarez",
		"admin1": "Cauca",
		"admin2": null,
		"country_iso2": "CO"
	},
	{
		"name": "El Rincón De Gabo Restobar",
		"external_id": "103707684998497",
		"external_id_source": "facebook_places",
		"lat": 8.8147686704,
		"lng": -74.7254607117,
		"address": "Barrio Zulia",
		"minimum_age": 0.0,
		"url": "https://www.instagram.com/explore/locations/103707684998497",
		"city": "Sucre",
		"admin1": "Sucre",
		"admin2": null,
		"country_iso2": "CO"
	},
	{
		"name": "Hotel De Cauca Viejo",
		"external_id": "118270398218299",
		"external_id_source": "facebook_places",
		"lat": 5.87058,
		"lng": -75.757585,
		"address": "Pueblo Cauca Viejo., Jericó, Antioquia, Colombia",
		"minimum_age": 0.0,
		"url": "https://www.instagram.com/explore/locations/118270398218299",
		"city": "Tarso",
		"admin1": "Antioquia",
		"admin2": null,
		"country_iso2": "CO"
	},
	{
		"name": "Donal parrilla",
		"external_id": "481788942163497",
		"external_id_source": "facebook_places",
		"lat": 8.03444,
		"lng": -75.78077,
		"address": "Barrio 27 de julio Montelibano , Montelíbano, Cordoba, Colombia",
		"minimum_age": 0.0,
		"url": "https://www.instagram.com/explore/locations/481788942163497",
		"city": "Tierralta",
		"admin1": "Cordoba",
		"admin2": null,
		"country_iso2": "CO"
	},
	{
		"name": "Buena Seña",
		"external_id": "646694065381289",
		"external_id_source": "facebook_places",
		"lat": 8.5460242,
		"lng": -74.0954705833,
		"address": null,
		"minimum_age": 0.0,
		"url": "https://www.instagram.com/explore/locations/646694065381289",
		"city": "Tiquisio",
		"admin1": "Bolivar",
		"admin2": null,
		"country_iso2": "CO"
	},
	{
		"name": "Mariachis Palmira",
		"external_id": "107314293955042",
		"external_id_source": "facebook_places",
		"lat": 3.0503163934,
		"lng": -76.0285853389,
		"address": "cra 27 #36-11, Palmira (Valle del Cauca)",
		"minimum_age": 0.0,
		"url": "https://www.instagram.com/explore/locations/107314293955042",
		"city": "Toribio",
		"admin1": "Cauca",
		"admin2": null,
		"country_iso2": "CO"
	},
	{
		"name": "La Pila del Mono",
		"external_id": "657184137657161",
		"external_id_source": "facebook_places",
		"lat": 5.53333333,
		"lng": -73.36666667,
		"address": "Tunja",
		"minimum_age": 0.0,
		"url": "https://www.instagram.com/explore/locations/657184137657161",
		"city": "Tunja",
		"admin1": "Boyaca",
		"admin2": null,
		"country_iso2": "CO"
	},
	{
		"name": "Cacique BAR CAFE",
		"external_id": "103263165380401",
		"external_id_source": "facebook_places",
		"lat": 5.3227808416,
		"lng": -73.4907,
		"address": "Carrera 3 # 3-73, Turmequé",
		"minimum_age": 0.0,
		"url": "https://www.instagram.com/explore/locations/103263165380401",
		"city": "Turmeque",
		"admin1": "Boyaca",
		"admin2": null,
		"country_iso2": "CO"
	},
	{
		"name": "FINCA HOTEL Las Araucarias",
		"external_id": "594325344004828",
		"external_id_source": "facebook_places",
		"lat": 6.2575695872,
		"lng": -76.1274285122,
		"address": "Vereda La San Jose, Urrao",
		"minimum_age": 0.0,
		"url": "https://www.instagram.com/explore/locations/594325344004828",
		"city": "Urrao",
		"admin1": "Antioquia",
		"admin2": null,
		"country_iso2": "CO"
	},
	{
		"name": "Finca Hotel Riomanso",
		"external_id": "481556702027983",
		"external_id_source": "facebook_places",
		"lat": 6.23023988,
		"lng": -76.116395122,
		"address": "Vereda Pringamosal, Urrao",
		"minimum_age": 0.0,
		"url": "https://www.instagram.com/explore/locations/481556702027983",
		"city": "Urrao",
		"admin1": "Antioquia",
		"admin2": null,
		"country_iso2": "CO"
	},
	{
		"name": "Enigma Night Club Valencia",
		"external_id": "1907900639456554",
		"external_id_source": "facebook_places",
		"lat": 8.2594932,
		"lng": -76.1523727,
		"address": null,
		"minimum_age": 0.0,
		"url": "https://www.instagram.com/explore/locations/1907900639456554",
		"city": "Valencia",
		"admin1": "Cordoba",
		"admin2": null,
		"country_iso2": "CO"
	},
	{
		"name": "Simon Bolivar, Valledupar",
		"external_id": "806915149687156",
		"external_id_source": null,
		"lat": null,
		"lng": null,
		"address": null,
		"minimum_age": null,
		"url": "https://www.instagram.com/explore/locations/806915149687156",
		"city": "Valledupar",
		"admin1": null,
		"admin2": null,
		"country_iso2": null
	},
	{
		"name": "Craft Coffee Col",
		"external_id": "102188361391610",
		"external_id_source": "facebook_places",
		"lat": 5.61621,
		"lng": -75.62475,
		"address": "📍Valparaíso, Jericó, Medellín",
		"minimum_age": 0.0,
		"url": "https://www.instagram.com/explore/locations/102188361391610",
		"city": "Valparaiso",
		"admin1": "Antioquia",
		"admin2": null,
		"country_iso2": "CO"
	},
	{
		"name": "Cafe antaño",
		"external_id": "1065609060235473",
		"external_id_source": "facebook_places",
		"lat": 6.7789773492,
		"lng": -74.7982474655,
		"address": "Parque del Barrio La paz 1 Vegachi, Vegachi",
		"minimum_age": 0.0,
		"url": "https://www.instagram.com/explore/locations/1065609060235473",
		"city": "Vegachi",
		"admin1": "Antioquia",
		"admin2": null,
		"country_iso2": "CO"
	},
	{
		"name": "Genki Luxury Glamping",
		"external_id": "105275748628352",
		"external_id_source": "facebook_places",
		"lat": 5.6552566962,
		"lng": -73.52015,
		"address": "Villa de Leyva, Boyaca, Villa De Leiva, Boyaca, Colombia",
		"minimum_age": 0.0,
		"url": "https://www.instagram.com/explore/locations/105275748628352",
		"city": "Villa de Leiva",
		"admin1": "Boyaca",
		"admin2": null,
		"country_iso2": "CO"
	},
	{
		"name": "Glamping León Dormido",
		"external_id": "368251380694648",
		"external_id_source": "facebook_places",
		"lat": 5.0491860167,
		"lng": -75.4916013667,
		"address": "1 km adelante de la laguna negra, via al Parque Nacional Los Nevados, La tribuna., Manizales, Caldas",
		"minimum_age": 0.0,
		"url": "https://www.instagram.com/explore/locations/368251380694648",
		"city": "Villamaria",
		"admin1": "Caldas",
		"admin2": null,
		"country_iso2": "CO"
	},
	{
		"name": "Capachos El Patio",
		"external_id": "1798605253801284",
		"external_id_source": "facebook_places",
		"lat": 4.1108970333,
		"lng": -73.6540620267,
		"address": null,
		"minimum_age": 0.0,
		"url": "https://www.instagram.com/explore/locations/1798605253801284",
		"city": "Villavicencio",
		"admin1": "Meta",
		"admin2": "Villavicencio",
		"country_iso2": "CO"
	},
	{
		"name": "Los Capachos",
		"external_id": "157211460040",
		"external_id_source": "facebook_places",
		"lat": 4.1108867727,
		"lng": -73.6539074779,
		"address": "Km 4 Via acacias, Villavicencio",
		"minimum_age": 0.0,
		"url": "https://www.instagram.com/explore/locations/157211460040",
		"city": "Villavicencio",
		"admin1": "Meta",
		"admin2": "Villavicencio",
		"country_iso2": "CO"
	},
	{
		"name": "Los Capachos",
		"external_id": "696580474",
		"external_id_source": null,
		"lat": null,
		"lng": null,
		"address": null,
		"minimum_age": null,
		"url": "https://www.instagram.com/explore/locations/696580474",
		"city": "Villavicencio",
		"admin1": null,
		"admin2": null,
		"country_iso2": null
	},
	{
		"name": "Malocas",
		"external_id": "740774886287113",
		"external_id_source": "facebook_places",
		"lat": 4.1248336592,
		"lng": -73.617409604,
		"address": "Camino ganadero con Avenida Maracos",
		"minimum_age": 0.0,
		"url": "https://www.instagram.com/explore/locations/740774886287113",
		"city": "Villavicencio",
		"admin1": "Meta",
		"admin2": "Villavicencio",
		"country_iso2": "CO"
	},
	{
		"name": "The Birder Glamping",
		"external_id": "100235392090463",
		"external_id_source": "facebook_places",
		"lat": 4.2007106559,
		"lng": -73.6376906556,
		"address": "Vereda Santa María, Villavicencio",
		"minimum_age": 0.0,
		"url": "https://www.instagram.com/explore/locations/100235392090463",
		"city": "Villavicencio",
		"admin1": "Meta",
		"admin2": "Villavicencio",
		"country_iso2": "CO"
	},
	{
		"name": "Bethel Bio Luxury Hotel",
		"external_id": "891472494259061",
		"external_id_source": "facebook_places",
		"lat": 3.2477448956,
		"lng": -75.1275372505,
		"address": "Villavieja ",
		"minimum_age": 0.0,
		"url": "https://www.instagram.com/explore/locations/891472494259061",
		"city": "Villavieja",
		"admin1": "Huila",
		"admin2": null,
		"country_iso2": "CO"
	},
	{
		"name": "La Parla",
		"external_id": "239862423212396",
		"external_id_source": "facebook_places",
		"lat": 3.5881626381,
		"lng": -76.5093343206,
		"address": "Carrera 4 Oeste # 12-240, Yumbo",
		"minimum_age": 0.0,
		"url": "https://www.instagram.com/explore/locations/239862423212396",
		"city": "Yumbo",
		"admin1": "Valle del Cauca",
		"admin2": null,
		"country_iso2": "CO"
	},
	{
		"name": "Romerías Hotel Restaurante",
		"external_id": "1671035676441356",
		"external_id_source": "facebook_places",
		"lat": 3.6495610279,
		"lng": -76.5648901463,
		"address": "7600, La Cumbe, Valle Del Cauca, Colombia",
		"minimum_age": 0.0,
		"url": "https://www.instagram.com/explore/locations/1671035676441356",
		"city": "Yumbo",
		"admin1": "Valle del Cauca",
		"admin2": null,
		"country_iso2": "CO"
	},
	{
		"name": "tibiritabaraclub",
		"external_id": "104257412318580",
		"external_id_source": "facebook_places",
		"lat": 3.5770391,
		"lng": -76.4913166,
		"address": "Cra. 40 #11-81, Yumbo",
		"minimum_age": 0.0,
		"url": "https://www.instagram.com/explore/locations/104257412318580",
		"city": "Yumbo",
		"admin1": "Valle del Cauca",
		"admin2": null,
		"country_iso2": "CO"
	},
	{
		"name": "El Cazique Guanatá Cafe",
		"external_id": "416141235689985",
		"external_id_source": "facebook_places",
		"lat": 5.3050764058,
		"lng": -73.1783437729,
		"address": null,
		"minimum_age": 0.0,
		"url": "https://www.instagram.com/explore/locations/416141235689985",
		"city": "Zetaquira",
		"admin1": "Boyaca",
		"admin2": null,
		"country_iso2": "CO"
	},
	{
		"name": "Zoé Coffee",
		"external_id": "101556801311333",
		"external_id_source": "facebook_places",
		"lat": 5.3402562025,
		"lng": -73.1961045794,
		"address": "Zoé Coffee Rondón Boyacá ",
		"minimum_age": 0.0,
		"url": "https://www.instagram.com/explore/locations/101556801311333",
		"city": "Zetaquira",
		"admin1": "Boyaca",
		"admin2": null,
		"country_iso2": "CO"
	},
	{
		"name": "Cut Club",
		"external_id": "456861577831276",
		"external_id_source": "facebook_places",
		"lat": null,
		"lng": null,
		"address": null,
		"minimum_age": 0.0,
		"url": "https://www.instagram.com/explore/locations/456861577831276",
		"city": null,
		"admin1": null,
		"admin2": null,
		"country_iso2": null
	},
	{
		"name": "Fusion Wok",
		"external_id": "599796920095760",
		"external_id_source": "facebook_places",
		"lat": null,
		"lng": null,
		"address": null,
		"minimum_age": 0.0,
		"url": "https://www.instagram.com/explore/locations/599796920095760",
		"city": null,
		"admin1": null,
		"admin2": null,
		"country_iso2": null
	},
	{
		"name": "Hawaii CLUB",
		"external_id": "361011573958743",
		"external_id_source": "facebook_places",
		"lat": null,
		"lng": null,
		"address": null,
		"minimum_age": 0.0,
		"url": "https://www.instagram.com/explore/locations/361011573958743",
		"city": null,
		"admin1": null,
		"admin2": null,
		"country_iso2": null
	},
	{
		"name": "HOLY Karaoke",
		"external_id": "107770020891",
		"external_id_source": "facebook_places",
		"lat": null,
		"lng": null,
		"address": null,
		"minimum_age": 0.0,
		"url": "https://www.instagram.com/explore/locations/107770020891",
		"city": null,
		"admin1": null,
		"admin2": null,
		"country_iso2": null
	},
	{
		"name": "La Consentida Cali",
		"external_id": "102257197866383",
		"external_id_source": "facebook_places",
		"lat": null,
		"lng": null,
		"address": null,
		"minimum_age": 0.0,
		"url": "https://www.instagram.com/explore/locations/102257197866383",
		"city": null,
		"admin1": null,
		"admin2": null,
		"country_iso2": null
	},
	{
		"name": "La Madriguera",
		"external_id": "155320957993810",
		"external_id_source": "facebook_places",
		"lat": null,
		"lng": null,
		"address": null,
		"minimum_age": 0.0,
		"url": "https://www.instagram.com/explore/locations/155320957993810",
		"city": null,
		"admin1": null,
		"admin2": null,
		"country_iso2": null
	},
	{
		"name": "Octava Club",
		"external_id": "178447279029307",
		"external_id_source": "facebook_places",
		"lat": null,
		"lng": null,
		"address": null,
		"minimum_age": 0.0,
		"url": "https://www.instagram.com/explore/locations/178447279029307",
		"city": null,
		"admin1": null,
		"admin2": null,
		"country_iso2": null
	}
]